{
"type": "FeatureCollection",
"features": [
{ "type": "Feature", "properties": { "PastDue": 396.17, "LastPayAmount": 173.0, "Address": "1320 Hendrix Rd", "LastPaymentMonth": "03", "LastPaymentYear": "2021", "Unit": "Apt 406", "Type": "past due", "LastInvoiceMonth": "NA", "LastInvoiceYear": "NA", "Neighborhood": "NA", "Precinct": "NA", "Zip_code": "32301", "delinquency": "0" }, "geometry": { "type": "Point", "coordinates": [ -84.2377996, 30.4257016 ] } },
{ "type": "Feature", "properties": { "PastDue": 947.53, "LastPayAmount": 250.0, "Address": "1263 Breckenridge Run", "LastPaymentMonth": "03", "LastPaymentYear": "2021", "Unit": "NA", "Type": "past due", "LastInvoiceMonth": "NA", "LastInvoiceYear": "NA", "Neighborhood": "NA", "Precinct": "NA", "Zip_code": "32311", "delinquency": "0" }, "geometry": { "type": "Point", "coordinates": [ -84.2093832, 30.4295936 ] } },
{ "type": "Feature", "properties": { "PastDue": 217.69, "LastPayAmount": 340.0, "Address": "2160 Castor Ct", "LastPaymentMonth": "03", "LastPaymentYear": "2021", "Unit": "Apt 2", "Type": "past due", "LastInvoiceMonth": "NA", "LastInvoiceYear": "NA", "Neighborhood": "NA", "Precinct": "NA", "Zip_code": "32303", "delinquency": "0" }, "geometry": { "type": "Point", "coordinates": [ -84.3242855, 30.4726406 ] } },
{ "type": "Feature", "properties": { "PastDue": 1140.88, "LastPayAmount": 308.31, "Address": "1802 Sylvan Ct", "LastPaymentMonth": "11", "LastPaymentYear": "2020", "Unit": "Apt A", "Type": "past due", "LastInvoiceMonth": "NA", "LastInvoiceYear": "NA", "Neighborhood": "NA", "Precinct": "NA", "Zip_code": "32303", "delinquency": "jan2021" }, "geometry": { "type": "Point", "coordinates": [ -84.314448, 30.474375 ] } },
{ "type": "Feature", "properties": { "PastDue": 252.46, "LastPayAmount": 259.32, "Address": "3221 Dungarvan Dr", "LastPaymentMonth": "03", "LastPaymentYear": "2021", "Unit": "NA", "Type": "past due", "LastInvoiceMonth": "NA", "LastInvoiceYear": "NA", "Neighborhood": "NA", "Precinct": "NA", "Zip_code": "32309", "delinquency": "0" }, "geometry": { "type": "Point", "coordinates": [ -84.1977184, 30.5232707 ] } },
{ "type": "Feature", "properties": { "PastDue": 1470.71, "LastPayAmount": 723.41, "Address": "2775 Cathedral Dr", "LastPaymentMonth": "10", "LastPaymentYear": "2020", "Unit": "Lot 268", "Type": "past due", "LastInvoiceMonth": "NA", "LastInvoiceYear": "NA", "Neighborhood": "NA", "Precinct": "NA", "Zip_code": "32310", "delinquency": "jan2021" }, "geometry": { "type": "Point", "coordinates": [ -84.3277508, 30.4066305 ] } },
{ "type": "Feature", "properties": { "PastDue": 347.49, "LastPayAmount": 500.0, "Address": "10068 Spring Sink Rd", "LastPaymentMonth": "03", "LastPaymentYear": "2021", "Unit": "NA", "Type": "past due", "LastInvoiceMonth": "NA", "LastInvoiceYear": "NA", "Neighborhood": "NA", "Precinct": "NA", "Zip_code": "32305", "delinquency": "0" }, "geometry": { "type": "Point", "coordinates": [ -84.2346509, 30.3010447 ] } },
{ "type": "Feature", "properties": { "PastDue": 1741.69, "LastPayAmount": 145.0, "Address": "2731 S Blair Stone Rd", "LastPaymentMonth": "02", "LastPaymentYear": "2020", "Unit": "Apt 61", "Type": "past due", "LastInvoiceMonth": "NA", "LastInvoiceYear": "NA", "Neighborhood": "NA", "Precinct": "NA", "Zip_code": "32301", "delinquency": "march2020" }, "geometry": { "type": "Point", "coordinates": [ -84.2499493, 30.4211491 ] } },
{ "type": "Feature", "properties": { "PastDue": 238.29, "LastPayAmount": 50.0, "Address": "2525 Texas St", "LastPaymentMonth": "04", "LastPaymentYear": "2021", "Unit": "Apt 230", "Type": "past due", "LastInvoiceMonth": "NA", "LastInvoiceYear": "NA", "Neighborhood": "NA", "Precinct": "NA", "Zip_code": "32301", "delinquency": "0" }, "geometry": { "type": "Point", "coordinates": [ -84.2736583, 30.4145585 ] } },
{ "type": "Feature", "properties": { "PastDue": 2564.94, "LastPayAmount": 208.97, "Address": "3665 Mahan Dr", "LastPaymentMonth": "03", "LastPaymentYear": "2020", "Unit": "NA", "Type": "past due", "LastInvoiceMonth": "NA", "LastInvoiceYear": "NA", "Neighborhood": "NA", "Precinct": "NA", "Zip_code": "32308", "delinquency": "jan2021" }, "geometry": { "type": "Point", "coordinates": [ -84.2122781, 30.465361 ] } },
{ "type": "Feature", "properties": { "PastDue": 1015.96, "LastPayAmount": 450.0, "Address": "2660 Old Bainbridge Rd", "LastPaymentMonth": "03", "LastPaymentYear": "2021", "Unit": "Apt 1504", "Type": "past due", "LastInvoiceMonth": "NA", "LastInvoiceYear": "NA", "Neighborhood": "NA", "Precinct": "NA", "Zip_code": "32303", "delinquency": "0" }, "geometry": { "type": "Point", "coordinates": [ -84.3209843, 30.4815262 ] } },
{ "type": "Feature", "properties": { "PastDue": 370.48, "LastPayAmount": 113.11, "Address": "505 Shephard St", "LastPaymentMonth": "03", "LastPaymentYear": "2021", "Unit": "Apt A3", "Type": "past due", "LastInvoiceMonth": "NA", "LastInvoiceYear": "NA", "Neighborhood": "NA", "Precinct": "NA", "Zip_code": "32303", "delinquency": "0" }, "geometry": { "type": "Point", "coordinates": [ -84.2879917, 30.4553551 ] } },
{ "type": "Feature", "properties": { "PastDue": 2196.24, "LastPayAmount": 200.0, "Address": "2626 E Park Ave", "LastPaymentMonth": "10", "LastPaymentYear": "2020", "Unit": "Apt 1104", "Type": "past due", "LastInvoiceMonth": "NA", "LastInvoiceYear": "NA", "Neighborhood": "NA", "Precinct": "NA", "Zip_code": "32301", "delinquency": "jan2021" }, "geometry": { "type": "Point", "coordinates": [ -84.2345891, 30.4480768 ] } },
{ "type": "Feature", "properties": { "PastDue": 1625.07, "LastPayAmount": 504.0, "Address": "2775 Cathedral Dr", "LastPaymentMonth": "04", "LastPaymentYear": "2021", "Unit": "Lot 331", "Type": "past due", "LastInvoiceMonth": "NA", "LastInvoiceYear": "NA", "Neighborhood": "NA", "Precinct": "NA", "Zip_code": "32310", "delinquency": "0" }, "geometry": { "type": "Point", "coordinates": [ -84.3277508, 30.4066305 ] } },
{ "type": "Feature", "properties": { "PastDue": 1337.37, "LastPayAmount": 400.0, "Address": "423 E Pershing St", "LastPaymentMonth": "02", "LastPaymentYear": "2021", "Unit": "NA", "Type": "past due", "LastInvoiceMonth": "NA", "LastInvoiceYear": "NA", "Neighborhood": "NA", "Precinct": "NA", "Zip_code": "32301", "delinquency": "0" }, "geometry": { "type": "Point", "coordinates": [ -84.2773602, 30.4293005 ] } },
{ "type": "Feature", "properties": { "PastDue": 2033.38, "LastPayAmount": 200.0, "Address": "2324 Sylvan Ct", "LastPaymentMonth": "10", "LastPaymentYear": "2020", "Unit": "NA", "Type": "past due", "LastInvoiceMonth": "NA", "LastInvoiceYear": "NA", "Neighborhood": "NA", "Precinct": "NA", "Zip_code": "32303", "delinquency": "jan2021" }, "geometry": { "type": "Point", "coordinates": [ -84.3145723, 30.4735936 ] } },
{ "type": "Feature", "properties": { "PastDue": 1566.11, "LastPayAmount": 270.0, "Address": "354 Whetherbine Way", "LastPaymentMonth": "12", "LastPaymentYear": "2020", "Unit": "NA", "Type": "past due", "LastInvoiceMonth": "NA", "LastInvoiceYear": "NA", "Neighborhood": "NA", "Precinct": "NA", "Zip_code": "32301", "delinquency": "jan2021" }, "geometry": { "type": "Point", "coordinates": [ -84.2304832, 30.4436236 ] } },
{ "type": "Feature", "properties": { "PastDue": 213.36, "LastPayAmount": 286.67, "Address": "2627 McKeithan Ct", "LastPaymentMonth": "03", "LastPaymentYear": "2021", "Unit": "NA", "Type": "past due", "LastInvoiceMonth": "NA", "LastInvoiceYear": "NA", "Neighborhood": "NA", "Precinct": "NA", "Zip_code": "32304", "delinquency": "0" }, "geometry": { "type": "Point", "coordinates": [ -84.336269, 30.450419 ] } },
{ "type": "Feature", "properties": { "PastDue": 322.29, "LastPayAmount": 200.0, "Address": "1405 Elberta Dr", "LastPaymentMonth": "04", "LastPaymentYear": "2021", "Unit": "NA", "Type": "past due", "LastInvoiceMonth": "NA", "LastInvoiceYear": "NA", "Neighborhood": "NA", "Precinct": "NA", "Zip_code": "32304", "delinquency": "0" }, "geometry": { "type": "Point", "coordinates": [ -84.3056928, 30.4277112 ] } },
{ "type": "Feature", "properties": { "PastDue": 310.63, "LastPayAmount": 320.0, "Address": "906 Apache St", "LastPaymentMonth": "03", "LastPaymentYear": "2021", "Unit": "NA", "Type": "past due", "LastInvoiceMonth": "NA", "LastInvoiceYear": "NA", "Neighborhood": "NA", "Precinct": "NA", "Zip_code": "32301", "delinquency": "0" }, "geometry": { "type": "Point", "coordinates": [ -84.267981600000013, 30.4114386 ] } },
{ "type": "Feature", "properties": { "PastDue": 304.81, "LastPayAmount": 477.24, "Address": "10040 N Natural Wells Dr", "LastPaymentMonth": "04", "LastPaymentYear": "2021", "Unit": "Wells Dr", "Type": "past due", "LastInvoiceMonth": "NA", "LastInvoiceYear": "NA", "Neighborhood": "NA", "Precinct": "NA", "Zip_code": "32305", "delinquency": "0" }, "geometry": { "type": "Point", "coordinates": [ -84.2385198, 30.3004066 ] } },
{ "type": "Feature", "properties": { "PastDue": 1660.23, "LastPayAmount": 300.0, "Address": "1418 Vogue Dr", "LastPaymentMonth": "12", "LastPaymentYear": "2020", "Unit": "NA", "Type": "past due", "LastInvoiceMonth": "NA", "LastInvoiceYear": "NA", "Neighborhood": "NA", "Precinct": "NA", "Zip_code": "32311", "delinquency": "jan2021" }, "geometry": { "type": "Point", "coordinates": [ -84.2258419, 30.4252863 ] } },
{ "type": "Feature", "properties": { "PastDue": 1649.82, "LastPayAmount": 750.0, "Address": "904 S Lipona Rd", "LastPaymentMonth": "04", "LastPaymentYear": "2020", "Unit": "NA", "Type": "past due", "LastInvoiceMonth": "NA", "LastInvoiceYear": "NA", "Neighborhood": "NA", "Precinct": "NA", "Zip_code": "32304", "delinquency": "jan2021" }, "geometry": { "type": "Point", "coordinates": [ -84.315312100000014, 30.4321223 ] } },
{ "type": "Feature", "properties": { "PastDue": 723.56, "LastPayAmount": 300.0, "Address": "1334 Bayberry Dr", "LastPaymentMonth": "04", "LastPaymentYear": "2021", "Unit": "NA", "Type": "past due", "LastInvoiceMonth": "NA", "LastInvoiceYear": "NA", "Neighborhood": "NA", "Precinct": "NA", "Zip_code": "32304", "delinquency": "0" }, "geometry": { "type": "Point", "coordinates": [ -84.3491192, 30.4426445 ] } },
{ "type": "Feature", "properties": { "PastDue": 1386.11, "LastPayAmount": 664.78, "Address": "214 Columbia Dr", "LastPaymentMonth": "06", "LastPaymentYear": "2020", "Unit": "Apt C17", "Type": "past due", "LastInvoiceMonth": "NA", "LastInvoiceYear": "NA", "Neighborhood": "NA", "Precinct": "NA", "Zip_code": "32304", "delinquency": "jan2021" }, "geometry": { "type": "Point", "coordinates": [ -84.3241745, 30.4438073 ] } },
{ "type": "Feature", "properties": { "PastDue": 1559.87, "LastPayAmount": 300.0, "Address": "950 Edgehill Cir", "LastPaymentMonth": "04", "LastPaymentYear": "2021", "Unit": "Apt 324", "Type": "past due", "LastInvoiceMonth": "NA", "LastInvoiceYear": "NA", "Neighborhood": "NA", "Precinct": "NA", "Zip_code": "32303", "delinquency": "0" }, "geometry": { "type": "Point", "coordinates": [ -84.2893076, 30.4530804 ] } },
{ "type": "Feature", "properties": { "PastDue": 213.04, "LastPayAmount": 300.0, "Address": "2916 Oakwood Dr", "LastPaymentMonth": "03", "LastPaymentYear": "2021", "Unit": "NA", "Type": "past due", "LastInvoiceMonth": "NA", "LastInvoiceYear": "NA", "Neighborhood": "NA", "Precinct": "NA", "Zip_code": "32304", "delinquency": "0" }, "geometry": { "type": "Point", "coordinates": [ -84.3410791, 30.4632036 ] } },
{ "type": "Feature", "properties": { "PastDue": 1132.28, "LastPayAmount": 222.0, "Address": "4733 La Salle Blvd", "LastPaymentMonth": "04", "LastPaymentYear": "2021", "Unit": "NA", "Type": "past due", "LastInvoiceMonth": "NA", "LastInvoiceYear": "NA", "Neighborhood": "NA", "Precinct": "NA", "Zip_code": "32303", "delinquency": "0" }, "geometry": { "type": "Point", "coordinates": [ -84.3570786, 30.4719362 ] } },
{ "type": "Feature", "properties": { "PastDue": 2641.73, "LastPayAmount": 184.33, "Address": "3100 Dian Rd", "LastPaymentMonth": "03", "LastPaymentYear": "2020", "Unit": "Apt 208", "Type": "past due", "LastInvoiceMonth": "NA", "LastInvoiceYear": "NA", "Neighborhood": "NA", "Precinct": "NA", "Zip_code": "32304", "delinquency": "jan2021" }, "geometry": { "type": "Point", "coordinates": [ -84.3440509, 30.460372 ] } },
{ "type": "Feature", "properties": { "PastDue": 948.29, "LastPayAmount": 776.78, "Address": "2325 W Pensacola St", "LastPaymentMonth": "10", "LastPaymentYear": "2020", "Unit": "Apt 104", "Type": "past due", "LastInvoiceMonth": "NA", "LastInvoiceYear": "NA", "Neighborhood": "NA", "Precinct": "NA", "Zip_code": "32304", "delinquency": "jan2021" }, "geometry": { "type": "Point", "coordinates": [ -84.3253141, 30.4406246 ] } },
{ "type": "Feature", "properties": { "PastDue": 296.5, "LastPayAmount": 612.16, "Address": "3425 Cornelia St", "LastPaymentMonth": "04", "LastPaymentYear": "2021", "Unit": "NA", "Type": "past due", "LastInvoiceMonth": "NA", "LastInvoiceYear": "NA", "Neighborhood": "NA", "Precinct": "NA", "Zip_code": "32305", "delinquency": "0" }, "geometry": { "type": "Point", "coordinates": [ -84.2726711, 30.3999337 ] } },
{ "type": "Feature", "properties": { "PastDue": 933.79, "LastPayAmount": 100.0, "Address": "120 White Dr", "LastPaymentMonth": "03", "LastPaymentYear": "2021", "Unit": "Apt B23", "Type": "past due", "LastInvoiceMonth": "NA", "LastInvoiceYear": "NA", "Neighborhood": "NA", "Precinct": "NA", "Zip_code": "32304", "delinquency": "0" }, "geometry": { "type": "Point", "coordinates": [ -84.326454, 30.442641 ] } },
{ "type": "Feature", "properties": { "PastDue": 236.5, "LastPayAmount": 261.24, "Address": "3140 Huttersfield Cir", "LastPaymentMonth": "04", "LastPaymentYear": "2021", "Unit": "NA", "Type": "past due", "LastInvoiceMonth": "NA", "LastInvoiceYear": "NA", "Neighborhood": "NA", "Precinct": "NA", "Zip_code": "32303", "delinquency": "0" }, "geometry": { "type": "Point", "coordinates": [ -84.335737600000016, 30.4839605 ] } },
{ "type": "Feature", "properties": { "PastDue": 536.56, "LastPayAmount": 150.0, "Address": "770 Appleyard Dr", "LastPaymentMonth": "04", "LastPaymentYear": "2021", "Unit": "Apt 6B", "Type": "past due", "LastInvoiceMonth": "NA", "LastInvoiceYear": "NA", "Neighborhood": "NA", "Precinct": "NA", "Zip_code": "32304", "delinquency": "0" }, "geometry": { "type": "Point", "coordinates": [ -84.341942, 30.4511307 ] } },
{ "type": "Feature", "properties": { "PastDue": 328.0, "LastPayAmount": 250.0, "Address": "410 Victory Garden Dr", "LastPaymentMonth": "04", "LastPaymentYear": "2021", "Unit": "Apt 62", "Type": "past due", "LastInvoiceMonth": "NA", "LastInvoiceYear": "NA", "Neighborhood": "NA", "Precinct": "NA", "Zip_code": "32301", "delinquency": "0" }, "geometry": { "type": "Point", "coordinates": [ -84.2420387, 30.4403767 ] } },
{ "type": "Feature", "properties": { "PastDue": 286.24, "LastPayAmount": 125.26, "Address": "615 E Park Ave", "LastPaymentMonth": "04", "LastPaymentYear": "2021", "Unit": "Apt 1", "Type": "past due", "LastInvoiceMonth": "NA", "LastInvoiceYear": "NA", "Neighborhood": "NA", "Precinct": "NA", "Zip_code": "32301", "delinquency": "0" }, "geometry": { "type": "Point", "coordinates": [ -84.273864, 30.4416625 ] } },
{ "type": "Feature", "properties": { "PastDue": 607.0, "LastPayAmount": 1000.0, "Address": "2315 Jackson Bluff Rd", "LastPaymentMonth": "03", "LastPaymentYear": "2021", "Unit": "Apt 324E", "Type": "past due", "LastInvoiceMonth": "NA", "LastInvoiceYear": "NA", "Neighborhood": "NA", "Precinct": "NA", "Zip_code": "32304", "delinquency": "0" }, "geometry": { "type": "Point", "coordinates": [ -84.3242301, 30.4327199 ] } },
{ "type": "Feature", "properties": { "PastDue": 1296.97, "LastPayAmount": 300.0, "Address": "2941 Livingston Rd", "LastPaymentMonth": "12", "LastPaymentYear": "2020", "Unit": "NA", "Type": "past due", "LastInvoiceMonth": "NA", "LastInvoiceYear": "NA", "Neighborhood": "NA", "Precinct": "NA", "Zip_code": "32303", "delinquency": "jan2021" }, "geometry": { "type": "Point", "coordinates": [ -84.3084068, 30.4859194 ] } },
{ "type": "Feature", "properties": { "PastDue": 4195.93, "LastPayAmount": 265.27, "Address": "2334 Talley Ln", "LastPaymentMonth": "03", "LastPaymentYear": "2020", "Unit": "NA", "Type": "past due", "LastInvoiceMonth": "NA", "LastInvoiceYear": "NA", "Neighborhood": "NA", "Precinct": "NA", "Zip_code": "32303", "delinquency": "jan2021" }, "geometry": { "type": "Point", "coordinates": [ -84.3432978, 30.4771578 ] } },
{ "type": "Feature", "properties": { "PastDue": 212.84, "LastPayAmount": 219.13, "Address": "901 Riggins Rd", "LastPaymentMonth": "04", "LastPaymentYear": "2021", "Unit": "Apt 526", "Type": "past due", "LastInvoiceMonth": "NA", "LastInvoiceYear": "NA", "Neighborhood": "NA", "Precinct": "NA", "Zip_code": "32308", "delinquency": "0" }, "geometry": { "type": "Point", "coordinates": [ -84.235655, 30.454353 ] } },
{ "type": "Feature", "properties": { "PastDue": 1324.13, "LastPayAmount": 219.9, "Address": "1630 Balkin Rd", "LastPaymentMonth": "09", "LastPaymentYear": "2020", "Unit": "Lot 120", "Type": "past due", "LastInvoiceMonth": "NA", "LastInvoiceYear": "NA", "Neighborhood": "NA", "Precinct": "NA", "Zip_code": "32305", "delinquency": "jan2021" }, "geometry": { "type": "Point", "coordinates": [ -84.304626, 30.385317 ] } },
{ "type": "Feature", "properties": { "PastDue": 1354.2, "LastPayAmount": 550.0, "Address": "1101 Ellington Ct", "LastPaymentMonth": "07", "LastPaymentYear": "2020", "Unit": "NA", "Type": "past due", "LastInvoiceMonth": "NA", "LastInvoiceYear": "NA", "Neighborhood": "NA", "Precinct": "NA", "Zip_code": "32304", "delinquency": "jan2021" }, "geometry": { "type": "Point", "coordinates": [ -84.2998136, 30.4540996 ] } },
{ "type": "Feature", "properties": { "PastDue": 722.53, "LastPayAmount": 361.81, "Address": "2711 Allen Rd", "LastPaymentMonth": "03", "LastPaymentYear": "2021", "Unit": "Apt H15", "Type": "past due", "LastInvoiceMonth": "NA", "LastInvoiceYear": "NA", "Neighborhood": "NA", "Precinct": "NA", "Zip_code": "32312", "delinquency": "0" }, "geometry": { "type": "Point", "coordinates": [ -84.2925516, 30.4785075 ] } },
{ "type": "Feature", "properties": { "PastDue": 312.39, "LastPayAmount": 400.0, "Address": "1804 Falconcrest St", "LastPaymentMonth": "04", "LastPaymentYear": "2021", "Unit": "NA", "Type": "past due", "LastInvoiceMonth": "NA", "LastInvoiceYear": "NA", "Neighborhood": "NA", "Precinct": "NA", "Zip_code": "32303", "delinquency": "0" }, "geometry": { "type": "Point", "coordinates": [ -84.329951, 30.463923 ] } },
{ "type": "Feature", "properties": { "PastDue": 1036.68, "LastPayAmount": 300.0, "Address": "4029 Tralee Rd", "LastPaymentMonth": "03", "LastPaymentYear": "2021", "Unit": "NA", "Type": "past due", "LastInvoiceMonth": "NA", "LastInvoiceYear": "NA", "Neighborhood": "NA", "Precinct": "NA", "Zip_code": "32309", "delinquency": "0" }, "geometry": { "type": "Point", "coordinates": [ -84.197553700000014, 30.5212464 ] } },
{ "type": "Feature", "properties": { "PastDue": 1209.9, "LastPayAmount": 170.48, "Address": "319 Hayden Rd", "LastPaymentMonth": "08", "LastPaymentYear": "2020", "Unit": "Apt 20", "Type": "past due", "LastInvoiceMonth": "NA", "LastInvoiceYear": "NA", "Neighborhood": "NA", "Precinct": "NA", "Zip_code": "32304", "delinquency": "jan2021" }, "geometry": { "type": "Point", "coordinates": [ -84.3070083, 30.4366955 ] } },
{ "type": "Feature", "properties": { "PastDue": 271.09, "LastPayAmount": 277.34, "Address": "929 Apache St", "LastPaymentMonth": "03", "LastPaymentYear": "2021", "Unit": "NA", "Type": "past due", "LastInvoiceMonth": "NA", "LastInvoiceYear": "NA", "Neighborhood": "NA", "Precinct": "NA", "Zip_code": "32301", "delinquency": "0" }, "geometry": { "type": "Point", "coordinates": [ -84.2663505, 30.4110109 ] } },
{ "type": "Feature", "properties": { "PastDue": 2328.5, "LastPayAmount": 500.0, "Address": "1293 Rumba Ln", "LastPaymentMonth": "07", "LastPaymentYear": "2020", "Unit": "Unit C", "Type": "past due", "LastInvoiceMonth": "NA", "LastInvoiceYear": "NA", "Neighborhood": "NA", "Precinct": "NA", "Zip_code": "32304", "delinquency": "jan2021" }, "geometry": { "type": "Point", "coordinates": [ -84.318775, 30.4567379 ] } },
{ "type": "Feature", "properties": { "PastDue": 1030.26, "LastPayAmount": 762.16, "Address": "301 Dixie Dr", "LastPaymentMonth": "02", "LastPaymentYear": "2021", "Unit": "Apt G4", "Type": "past due", "LastInvoiceMonth": "NA", "LastInvoiceYear": "NA", "Neighborhood": "NA", "Precinct": "NA", "Zip_code": "32304", "delinquency": "0" }, "geometry": { "type": "Point", "coordinates": [ -84.3269436, 30.445412 ] } },
{ "type": "Feature", "properties": { "PastDue": 2781.98, "LastPayAmount": 200.99, "Address": "703 Putnam Dr", "LastPaymentMonth": "03", "LastPaymentYear": "2020", "Unit": "Apt 7", "Type": "past due", "LastInvoiceMonth": "NA", "LastInvoiceYear": "NA", "Neighborhood": "NA", "Precinct": "NA", "Zip_code": "32301", "delinquency": "jan2021" }, "geometry": { "type": "Point", "coordinates": [ -84.2729385, 30.4164786 ] } },
{ "type": "Feature", "properties": { "PastDue": 228.01, "LastPayAmount": 215.0, "Address": "128 Belmont Rd", "LastPaymentMonth": "04", "LastPaymentYear": "2021", "Unit": "NA", "Type": "past due", "LastInvoiceMonth": "NA", "LastInvoiceYear": "NA", "Neighborhood": "NA", "Precinct": "NA", "Zip_code": "32301", "delinquency": "0" }, "geometry": { "type": "Point", "coordinates": [ -84.2588484, 30.4430223 ] } },
{ "type": "Feature", "properties": { "PastDue": 683.79, "LastPayAmount": 281.95, "Address": "601 S Copeland St", "LastPaymentMonth": "04", "LastPaymentYear": "2021", "Unit": "Apt 311", "Type": "past due", "LastInvoiceMonth": "NA", "LastInvoiceYear": "NA", "Neighborhood": "NA", "Precinct": "NA", "Zip_code": "32304", "delinquency": "0" }, "geometry": { "type": "Point", "coordinates": [ -84.2902386, 30.4368949 ] } },
{ "type": "Feature", "properties": { "PastDue": 320.82, "LastPayAmount": 400.0, "Address": "2307 Delgado Dr", "LastPaymentMonth": "04", "LastPaymentYear": "2021", "Unit": "NA", "Type": "past due", "LastInvoiceMonth": "NA", "LastInvoiceYear": "NA", "Neighborhood": "NA", "Precinct": "NA", "Zip_code": "32304", "delinquency": "0" }, "geometry": { "type": "Point", "coordinates": [ -84.3255668, 30.4570816 ] } },
{ "type": "Feature", "properties": { "PastDue": 369.72, "LastPayAmount": 200.0, "Address": "2543 Panther Creek Rd", "LastPaymentMonth": "04", "LastPaymentYear": "2021", "Unit": "NA", "Type": "past due", "LastInvoiceMonth": "NA", "LastInvoiceYear": "NA", "Neighborhood": "NA", "Precinct": "NA", "Zip_code": "32308", "delinquency": "0" }, "geometry": { "type": "Point", "coordinates": [ -84.2255537, 30.4681055 ] } },
{ "type": "Feature", "properties": { "PastDue": 247.76, "LastPayAmount": 249.69, "Address": "707 Apache St", "LastPaymentMonth": "03", "LastPaymentYear": "2021", "Unit": "NA", "Type": "past due", "LastInvoiceMonth": "NA", "LastInvoiceYear": "NA", "Neighborhood": "NA", "Precinct": "NA", "Zip_code": "32301", "delinquency": "0" }, "geometry": { "type": "Point", "coordinates": [ -84.271725, 30.4110642 ] } },
{ "type": "Feature", "properties": { "PastDue": 957.46, "LastPayAmount": 148.44, "Address": "1533 S Bronough St", "LastPaymentMonth": "01", "LastPaymentYear": "2021", "Unit": "Apt J", "Type": "past due", "LastInvoiceMonth": "NA", "LastInvoiceYear": "NA", "Neighborhood": "NA", "Precinct": "NA", "Zip_code": "32301", "delinquency": "0" }, "geometry": { "type": "Point", "coordinates": [ -84.2841054, 30.4273077 ] } },
{ "type": "Feature", "properties": { "PastDue": 295.0, "LastPayAmount": 300.0, "Address": "2060 Continental Ave", "LastPaymentMonth": "04", "LastPaymentYear": "2021", "Unit": "Apt 232", "Type": "past due", "LastInvoiceMonth": "NA", "LastInvoiceYear": "NA", "Neighborhood": "NA", "Precinct": "NA", "Zip_code": "32304", "delinquency": "0" }, "geometry": { "type": "Point", "coordinates": [ -84.317059, 30.4565774 ] } },
{ "type": "Feature", "properties": { "PastDue": 582.26, "LastPayAmount": 300.0, "Address": "2241 W Pensacola St", "LastPaymentMonth": "04", "LastPaymentYear": "2021", "Unit": "Apt 39", "Type": "past due", "LastInvoiceMonth": "NA", "LastInvoiceYear": "NA", "Neighborhood": "NA", "Precinct": "NA", "Zip_code": "32304", "delinquency": "0" }, "geometry": { "type": "Point", "coordinates": [ -84.3240677, 30.4405579 ] } },
{ "type": "Feature", "properties": { "PastDue": 204.55, "LastPayAmount": 193.01, "Address": "1737 Atkamire Dr", "LastPaymentMonth": "03", "LastPaymentYear": "2021", "Unit": "NA", "Type": "past due", "LastInvoiceMonth": "NA", "LastInvoiceYear": "NA", "Neighborhood": "NA", "Precinct": "NA", "Zip_code": "32304", "delinquency": "0" }, "geometry": { "type": "Point", "coordinates": [ -84.3121469, 30.4318501 ] } },
{ "type": "Feature", "properties": { "PastDue": 442.19, "LastPayAmount": 200.0, "Address": "2750 Old Saint Augustine Rd", "LastPaymentMonth": "04", "LastPaymentYear": "2021", "Unit": "Apt Q173", "Type": "past due", "LastInvoiceMonth": "NA", "LastInvoiceYear": "NA", "Neighborhood": "NA", "Precinct": "NA", "Zip_code": "32301", "delinquency": "0" }, "geometry": { "type": "Point", "coordinates": [ -84.2321606, 30.4227166 ] } },
{ "type": "Feature", "properties": { "PastDue": 280.45, "LastPayAmount": 300.0, "Address": "1844 Larette Dr", "LastPaymentMonth": "03", "LastPaymentYear": "2021", "Unit": "Apt B", "Type": "past due", "LastInvoiceMonth": "NA", "LastInvoiceYear": "NA", "Neighborhood": "NA", "Precinct": "NA", "Zip_code": "32301", "delinquency": "0" }, "geometry": { "type": "Point", "coordinates": [ -84.2460513, 30.4197173 ] } },
{ "type": "Feature", "properties": { "PastDue": 284.24, "LastPayAmount": 256.72, "Address": "1669 Mayhew St", "LastPaymentMonth": "04", "LastPaymentYear": "2021", "Unit": "NA", "Type": "past due", "LastInvoiceMonth": "NA", "LastInvoiceYear": "NA", "Neighborhood": "NA", "Precinct": "NA", "Zip_code": "32304", "delinquency": "0" }, "geometry": { "type": "Point", "coordinates": [ -84.3107904, 30.4307593 ] } },
{ "type": "Feature", "properties": { "PastDue": 3389.4, "LastPayAmount": 220.5, "Address": "1719 Buckingham Ct", "LastPaymentMonth": "01", "LastPaymentYear": "2021", "Unit": "Apt B", "Type": "past due", "LastInvoiceMonth": "NA", "LastInvoiceYear": "NA", "Neighborhood": "NA", "Precinct": "NA", "Zip_code": "32308", "delinquency": "0" }, "geometry": { "type": "Point", "coordinates": [ -84.2539932, 30.456623 ] } },
{ "type": "Feature", "properties": { "PastDue": 735.89, "LastPayAmount": 383.42, "Address": "1031 Sutor Rd", "LastPaymentMonth": "03", "LastPaymentYear": "2021", "Unit": "Unit A", "Type": "past due", "LastInvoiceMonth": "NA", "LastInvoiceYear": "NA", "Neighborhood": "NA", "Precinct": "NA", "Zip_code": "32311", "delinquency": "0" }, "geometry": { "type": "Point", "coordinates": [ -84.212081, 30.43274 ] } },
{ "type": "Feature", "properties": { "PastDue": 8503.33, "LastPayAmount": 596.2, "Address": "111 Young St", "LastPaymentMonth": "07", "LastPaymentYear": "2020", "Unit": "NA", "Type": "past due", "LastInvoiceMonth": "NA", "LastInvoiceYear": "NA", "Neighborhood": "NA", "Precinct": "NA", "Zip_code": "32301", "delinquency": "jan2021" }, "geometry": { "type": "Point", "coordinates": [ -84.2828921, 30.422477 ] } },
{ "type": "Feature", "properties": { "PastDue": 2037.24, "LastPayAmount": 220.0, "Address": "3563 Wood Hill Dr", "LastPaymentMonth": "03", "LastPaymentYear": "2020", "Unit": "NA", "Type": "past due", "LastInvoiceMonth": "NA", "LastInvoiceYear": "NA", "Neighborhood": "NA", "Precinct": "NA", "Zip_code": "32303", "delinquency": "jan2021" }, "geometry": { "type": "Point", "coordinates": [ -84.3458861, 30.4973592 ] } },
{ "type": "Feature", "properties": { "PastDue": 1790.75, "LastPayAmount": 400.0, "Address": "3210 Jim Lee Rd", "LastPaymentMonth": "04", "LastPaymentYear": "2021", "Unit": "Apt B", "Type": "past due", "LastInvoiceMonth": "NA", "LastInvoiceYear": "NA", "Neighborhood": "NA", "Precinct": "NA", "Zip_code": "32301", "delinquency": "0" }, "geometry": { "type": "Point", "coordinates": [ -84.2644025, 30.4039685 ] } },
{ "type": "Feature", "properties": { "PastDue": 3897.05, "LastPayAmount": 149.0, "Address": "3535 Roberts Ave", "LastPaymentMonth": "03", "LastPaymentYear": "2020", "Unit": "Lot 70", "Type": "past due", "LastInvoiceMonth": "NA", "LastInvoiceYear": "NA", "Neighborhood": "NA", "Precinct": "NA", "Zip_code": "32310", "delinquency": "jan2021" }, "geometry": { "type": "Point", "coordinates": [ -84.338676, 30.426287 ] } },
{ "type": "Feature", "properties": { "PastDue": 3810.02, "LastPayAmount": 237.0, "Address": "2757 Westbrook Ct", "LastPaymentMonth": "02", "LastPaymentYear": "2020", "Unit": "NA", "Type": "past due", "LastInvoiceMonth": "NA", "LastInvoiceYear": "NA", "Neighborhood": "NA", "Precinct": "NA", "Zip_code": "32303", "delinquency": "march2020" }, "geometry": { "type": "Point", "coordinates": [ -84.342768, 30.467658 ] } },
{ "type": "Feature", "properties": { "PastDue": 377.15, "LastPayAmount": 378.86, "Address": "2731 S Blair Stone Rd", "LastPaymentMonth": "02", "LastPaymentYear": "2021", "Unit": "Apt 34", "Type": "past due", "LastInvoiceMonth": "NA", "LastInvoiceYear": "NA", "Neighborhood": "NA", "Precinct": "NA", "Zip_code": "32301", "delinquency": "0" }, "geometry": { "type": "Point", "coordinates": [ -84.2499493, 30.4211491 ] } },
{ "type": "Feature", "properties": { "PastDue": 1500.78, "LastPayAmount": 200.0, "Address": "5025 Isabelle Dr", "LastPaymentMonth": "09", "LastPaymentYear": "2020", "Unit": "NA", "Type": "past due", "LastInvoiceMonth": "NA", "LastInvoiceYear": "NA", "Neighborhood": "NA", "Precinct": "NA", "Zip_code": "32305", "delinquency": "jan2021" }, "geometry": { "type": "Point", "coordinates": [ -84.3002206, 30.3745508 ] } },
{ "type": "Feature", "properties": { "PastDue": 2945.47, "LastPayAmount": 531.74, "Address": "1924 Portland Ave", "LastPaymentMonth": "06", "LastPaymentYear": "2020", "Unit": "NA", "Type": "past due", "LastInvoiceMonth": "NA", "LastInvoiceYear": "NA", "Neighborhood": "NA", "Precinct": "NA", "Zip_code": "32303", "delinquency": "jan2021" }, "geometry": { "type": "Point", "coordinates": [ -84.3211589, 30.4777557 ] } },
{ "type": "Feature", "properties": { "PastDue": 500.0, "LastPayAmount": 500.0, "Address": "763 Violet St", "LastPaymentMonth": "04", "LastPaymentYear": "2021", "Unit": "NA", "Type": "past due", "LastInvoiceMonth": "NA", "LastInvoiceYear": "NA", "Neighborhood": "NA", "Precinct": "NA", "Zip_code": "32308", "delinquency": "0" }, "geometry": { "type": "Point", "coordinates": [ -84.2336219, 30.4505682 ] } },
{ "type": "Feature", "properties": { "PastDue": 239.54, "LastPayAmount": 500.0, "Address": "1400 Golden Park Ct", "LastPaymentMonth": "04", "LastPaymentYear": "2021", "Unit": "NA", "Type": "past due", "LastInvoiceMonth": "NA", "LastInvoiceYear": "NA", "Neighborhood": "NA", "Precinct": "NA", "Zip_code": "32303", "delinquency": "0" }, "geometry": { "type": "Point", "coordinates": [ -84.306309399999989, 30.4791834 ] } },
{ "type": "Feature", "properties": { "PastDue": 484.47, "LastPayAmount": 240.82, "Address": "531 E Tennessee St", "LastPaymentMonth": "01", "LastPaymentYear": "2021", "Unit": "Apt C", "Type": "past due", "LastInvoiceMonth": "NA", "LastInvoiceYear": "NA", "Neighborhood": "NA", "Precinct": "NA", "Zip_code": "32308", "delinquency": "0" }, "geometry": { "type": "Point", "coordinates": [ -84.2758499, 30.4443178 ] } },
{ "type": "Feature", "properties": { "PastDue": 312.9, "LastPayAmount": 282.17, "Address": "1589 Balkin Rd", "LastPaymentMonth": "03", "LastPaymentYear": "2021", "Unit": "NA", "Type": "past due", "LastInvoiceMonth": "NA", "LastInvoiceYear": "NA", "Neighborhood": "NA", "Precinct": "NA", "Zip_code": "32305", "delinquency": "0" }, "geometry": { "type": "Point", "coordinates": [ -84.3047998, 30.3832485 ] } },
{ "type": "Feature", "properties": { "PastDue": 224.44, "LastPayAmount": 238.0, "Address": "2304 S Calhoun St", "LastPaymentMonth": "04", "LastPaymentYear": "2021", "Unit": "NA", "Type": "past due", "LastInvoiceMonth": "NA", "LastInvoiceYear": "NA", "Neighborhood": "NA", "Precinct": "NA", "Zip_code": "32301", "delinquency": "0" }, "geometry": { "type": "Point", "coordinates": [ -84.2797047, 30.4186813 ] } },
{ "type": "Feature", "properties": { "PastDue": 1122.09, "LastPayAmount": 245.51, "Address": "740 White Dr", "LastPaymentMonth": "09", "LastPaymentYear": "2020", "Unit": "Lot 40", "Type": "past due", "LastInvoiceMonth": "NA", "LastInvoiceYear": "NA", "Neighborhood": "NA", "Precinct": "NA", "Zip_code": "32304", "delinquency": "jan2021" }, "geometry": { "type": "Point", "coordinates": [ -84.326342, 30.450551 ] } },
{ "type": "Feature", "properties": { "PastDue": 213.47, "LastPayAmount": 175.0, "Address": "415 E Brevard St", "LastPaymentMonth": "04", "LastPaymentYear": "2021", "Unit": "Apt 26", "Type": "past due", "LastInvoiceMonth": "NA", "LastInvoiceYear": "NA", "Neighborhood": "NA", "Precinct": "NA", "Zip_code": "32301", "delinquency": "0" }, "geometry": { "type": "Point", "coordinates": [ -84.2772985, 30.4488773 ] } },
{ "type": "Feature", "properties": { "PastDue": 207.6, "LastPayAmount": 226.12, "Address": "424 Indian Village Trl", "LastPaymentMonth": "03", "LastPaymentYear": "2021", "Unit": "NA", "Type": "past due", "LastInvoiceMonth": "NA", "LastInvoiceYear": "NA", "Neighborhood": "NA", "Precinct": "NA", "Zip_code": "32304", "delinquency": "0" }, "geometry": { "type": "Point", "coordinates": [ -84.3051686, 30.435079 ] } },
{ "type": "Feature", "properties": { "PastDue": 425.38, "LastPayAmount": 50.91, "Address": "1207 N Martin Luther King Jr Blvd", "LastPaymentMonth": "04", "LastPaymentYear": "2021", "Unit": "Unit B2", "Type": "past due", "LastInvoiceMonth": "NA", "LastInvoiceYear": "NA", "Neighborhood": "NA", "Precinct": "NA", "Zip_code": "32303", "delinquency": "0" }, "geometry": { "type": "Point", "coordinates": [ -84.2851792, 30.4547252 ] } },
{ "type": "Feature", "properties": { "PastDue": 1300.87, "LastPayAmount": 720.0, "Address": "509 E Magnolia Dr", "LastPaymentMonth": "04", "LastPaymentYear": "2021", "Unit": "Apt H225", "Type": "past due", "LastInvoiceMonth": "NA", "LastInvoiceYear": "NA", "Neighborhood": "NA", "Precinct": "NA", "Zip_code": "32301", "delinquency": "0" }, "geometry": { "type": "Point", "coordinates": [ -84.2742959, 30.418826 ] } },
{ "type": "Feature", "properties": { "PastDue": 880.77, "LastPayAmount": 227.68, "Address": "1447 Stone Rd", "LastPaymentMonth": "11", "LastPaymentYear": "2020", "Unit": "NA", "Type": "past due", "LastInvoiceMonth": "NA", "LastInvoiceYear": "NA", "Neighborhood": "NA", "Precinct": "NA", "Zip_code": "32303", "delinquency": "jan2021" }, "geometry": { "type": "Point", "coordinates": [ -84.3085088, 30.4748621 ] } },
{ "type": "Feature", "properties": { "PastDue": 227.9, "LastPayAmount": 278.24, "Address": "521 Omega Ave", "LastPaymentMonth": "04", "LastPaymentYear": "2021", "Unit": "NA", "Type": "past due", "LastInvoiceMonth": "NA", "LastInvoiceYear": "NA", "Neighborhood": "NA", "Precinct": "NA", "Zip_code": "32305", "delinquency": "0" }, "geometry": { "type": "Point", "coordinates": [ -84.2698122, 30.4012668 ] } },
{ "type": "Feature", "properties": { "PastDue": 202.76, "LastPayAmount": 212.67, "Address": "3129 Huttersfield Cir", "LastPaymentMonth": "03", "LastPaymentYear": "2021", "Unit": "NA", "Type": "past due", "LastInvoiceMonth": "NA", "LastInvoiceYear": "NA", "Neighborhood": "NA", "Precinct": "NA", "Zip_code": "32303", "delinquency": "0" }, "geometry": { "type": "Point", "coordinates": [ -84.3352445, 30.483401 ] } },
{ "type": "Feature", "properties": { "PastDue": 235.9, "LastPayAmount": 250.0, "Address": "1574 Talpeco Rd", "LastPaymentMonth": "04", "LastPaymentYear": "2021", "Unit": "NA", "Type": "past due", "LastInvoiceMonth": "NA", "LastInvoiceYear": "NA", "Neighborhood": "NA", "Precinct": "NA", "Zip_code": "32303", "delinquency": "0" }, "geometry": { "type": "Point", "coordinates": [ -84.3157642, 30.4930923 ] } },
{ "type": "Feature", "properties": { "PastDue": 1742.84, "LastPayAmount": 436.86, "Address": "2879 Jim Lee Rd", "LastPaymentMonth": "07", "LastPaymentYear": "2020", "Unit": "NA", "Type": "past due", "LastInvoiceMonth": "NA", "LastInvoiceYear": "NA", "Neighborhood": "NA", "Precinct": "NA", "Zip_code": "32301", "delinquency": "jan2021" }, "geometry": { "type": "Point", "coordinates": [ -84.2635519, 30.4106398 ] } },
{ "type": "Feature", "properties": { "PastDue": 458.93, "LastPayAmount": 2367.35, "Address": "2605 Holton St", "LastPaymentMonth": "02", "LastPaymentYear": "2021", "Unit": "NA", "Type": "past due", "LastInvoiceMonth": "NA", "LastInvoiceYear": "NA", "Neighborhood": "NA", "Precinct": "NA", "Zip_code": "32310", "delinquency": "0" }, "geometry": { "type": "Point", "coordinates": [ -84.295743, 30.4145813 ] } },
{ "type": "Feature", "properties": { "PastDue": 703.37, "LastPayAmount": 200.0, "Address": "2325 W Pensacola St", "LastPaymentMonth": "04", "LastPaymentYear": "2021", "Unit": "Apt 133", "Type": "past due", "LastInvoiceMonth": "NA", "LastInvoiceYear": "NA", "Neighborhood": "NA", "Precinct": "NA", "Zip_code": "32304", "delinquency": "0" }, "geometry": { "type": "Point", "coordinates": [ -84.3253141, 30.4406246 ] } },
{ "type": "Feature", "properties": { "PastDue": 513.58, "LastPayAmount": 468.99, "Address": "1921 Buckwood Dr", "LastPaymentMonth": "04", "LastPaymentYear": "2021", "Unit": "NA", "Type": "past due", "LastInvoiceMonth": "NA", "LastInvoiceYear": "NA", "Neighborhood": "NA", "Precinct": "NA", "Zip_code": "32317", "delinquency": "0" }, "geometry": { "type": "Point", "coordinates": [ -84.2083023, 30.4651446 ] } },
{ "type": "Feature", "properties": { "PastDue": 513.68, "LastPayAmount": 612.65, "Address": "1717 Bernay Blvd", "LastPaymentMonth": "03", "LastPaymentYear": "2021", "Unit": "NA", "Type": "past due", "LastInvoiceMonth": "NA", "LastInvoiceYear": "NA", "Neighborhood": "NA", "Precinct": "NA", "Zip_code": "32303", "delinquency": "0" }, "geometry": { "type": "Point", "coordinates": [ -84.3606349, 30.4729632 ] } },
{ "type": "Feature", "properties": { "PastDue": 1310.65, "LastPayAmount": 300.0, "Address": "2660 Old Bainbridge Rd", "LastPaymentMonth": "02", "LastPaymentYear": "2021", "Unit": "Apt 1601", "Type": "past due", "LastInvoiceMonth": "NA", "LastInvoiceYear": "NA", "Neighborhood": "NA", "Precinct": "NA", "Zip_code": "32303", "delinquency": "0" }, "geometry": { "type": "Point", "coordinates": [ -84.3209843, 30.4815262 ] } },
{ "type": "Feature", "properties": { "PastDue": 205.02, "LastPayAmount": 303.36, "Address": "1634 Rankin Ave", "LastPaymentMonth": "03", "LastPaymentYear": "2021", "Unit": "NA", "Type": "past due", "LastInvoiceMonth": "NA", "LastInvoiceYear": "NA", "Neighborhood": "NA", "Precinct": "NA", "Zip_code": "32310", "delinquency": "0" }, "geometry": { "type": "Point", "coordinates": [ -84.345119700000012, 30.4269439 ] } },
{ "type": "Feature", "properties": { "PastDue": 1736.22, "LastPayAmount": 300.0, "Address": "1608 Callen St", "LastPaymentMonth": "03", "LastPaymentYear": "2021", "Unit": "NA", "Type": "past due", "LastInvoiceMonth": "NA", "LastInvoiceYear": "NA", "Neighborhood": "NA", "Precinct": "NA", "Zip_code": "32310", "delinquency": "0" }, "geometry": { "type": "Point", "coordinates": [ -84.3121675, 30.4159471 ] } },
{ "type": "Feature", "properties": { "PastDue": 1334.6, "LastPayAmount": 177.0, "Address": "2712 W Tharpe St", "LastPaymentMonth": "07", "LastPaymentYear": "2020", "Unit": "Apt F40", "Type": "past due", "LastInvoiceMonth": "NA", "LastInvoiceYear": "NA", "Neighborhood": "NA", "Precinct": "NA", "Zip_code": "32303", "delinquency": "jan2021" }, "geometry": { "type": "Point", "coordinates": [ -84.339246, 30.466479 ] } },
{ "type": "Feature", "properties": { "PastDue": 202.83, "LastPayAmount": 201.88, "Address": "2353 Mission Rd", "LastPaymentMonth": "03", "LastPaymentYear": "2021", "Unit": "Apt 412", "Type": "past due", "LastInvoiceMonth": "NA", "LastInvoiceYear": "NA", "Neighborhood": "NA", "Precinct": "NA", "Zip_code": "32304", "delinquency": "0" }, "geometry": { "type": "Point", "coordinates": [ -84.327354500000013, 30.4531897 ] } },
{ "type": "Feature", "properties": { "PastDue": 1822.5, "LastPayAmount": 50.0, "Address": "967 Chase", "LastPaymentMonth": "11", "LastPaymentYear": "2020", "Unit": "NA", "Type": "past due", "LastInvoiceMonth": "NA", "LastInvoiceYear": "NA", "Neighborhood": "NA", "Precinct": "NA", "Zip_code": "NA", "delinquency": "jan2021" }, "geometry": { "type": "Point", "coordinates": [ -81.5157535, 27.6648274 ] } },
{ "type": "Feature", "properties": { "PastDue": 701.87, "LastPayAmount": 800.0, "Address": "1216 Clay St", "LastPaymentMonth": "03", "LastPaymentYear": "2021", "Unit": "NA", "Type": "past due", "LastInvoiceMonth": "NA", "LastInvoiceYear": "NA", "Neighborhood": "NA", "Precinct": "NA", "Zip_code": "32304", "delinquency": "0" }, "geometry": { "type": "Point", "coordinates": [ -84.3021982, 30.4561322 ] } },
{ "type": "Feature", "properties": { "PastDue": 560.66, "LastPayAmount": 1057.7, "Address": "4532 Grove Park Dr", "LastPaymentMonth": "04", "LastPaymentYear": "2021", "Unit": "NA", "Type": "past due", "LastInvoiceMonth": "NA", "LastInvoiceYear": "NA", "Neighborhood": "NA", "Precinct": "NA", "Zip_code": "32311", "delinquency": "0" }, "geometry": { "type": "Point", "coordinates": [ -84.2158993, 30.3882158 ] } },
{ "type": "Feature", "properties": { "PastDue": 322.6, "LastPayAmount": 297.63, "Address": "2521 Twain Dr", "LastPaymentMonth": "03", "LastPaymentYear": "2021", "Unit": "NA", "Type": "past due", "LastInvoiceMonth": "NA", "LastInvoiceYear": "NA", "Neighborhood": "NA", "Precinct": "NA", "Zip_code": "32311", "delinquency": "0" }, "geometry": { "type": "Point", "coordinates": [ -84.2220956, 30.4073112 ] } },
{ "type": "Feature", "properties": { "PastDue": 229.46, "LastPayAmount": 492.04, "Address": "710 Greenleaf Dr", "LastPaymentMonth": "04", "LastPaymentYear": "2021", "Unit": "NA", "Type": "past due", "LastInvoiceMonth": "NA", "LastInvoiceYear": "NA", "Neighborhood": "NA", "Precinct": "NA", "Zip_code": "32305", "delinquency": "0" }, "geometry": { "type": "Point", "coordinates": [ -84.2704498, 30.3786566 ] } },
{ "type": "Feature", "properties": { "PastDue": 213.02, "LastPayAmount": 215.0, "Address": "970 Crawfordville Trce", "LastPaymentMonth": "04", "LastPaymentYear": "2021", "Unit": "NA", "Type": "past due", "LastInvoiceMonth": "NA", "LastInvoiceYear": "NA", "Neighborhood": "NA", "Precinct": "NA", "Zip_code": "32305", "delinquency": "0" }, "geometry": { "type": "Point", "coordinates": [ -84.2929057, 30.3845741 ] } },
{ "type": "Feature", "properties": { "PastDue": 655.47, "LastPayAmount": 216.03, "Address": "4135 E Bugleview Dr", "LastPaymentMonth": "04", "LastPaymentYear": "2021", "Unit": "NA", "Type": "past due", "LastInvoiceMonth": "NA", "LastInvoiceYear": "NA", "Neighborhood": "NA", "Precinct": "NA", "Zip_code": "32303", "delinquency": "0" }, "geometry": { "type": "Point", "coordinates": [ -84.2767377, 30.4650936 ] } },
{ "type": "Feature", "properties": { "PastDue": 284.52, "LastPayAmount": 126.15, "Address": "8225 Bridge Water Trl", "LastPaymentMonth": "01", "LastPaymentYear": "2021", "Unit": "NA", "Type": "past due", "LastInvoiceMonth": "NA", "LastInvoiceYear": "NA", "Neighborhood": "NA", "Precinct": "NA", "Zip_code": "32312", "delinquency": "0" }, "geometry": { "type": "Point", "coordinates": [ -84.2362561, 30.5809505 ] } },
{ "type": "Feature", "properties": { "PastDue": 1068.3, "LastPayAmount": 1000.0, "Address": "1360 Ocala Rd", "LastPaymentMonth": "04", "LastPaymentYear": "2021", "Unit": "Apt 121", "Type": "past due", "LastInvoiceMonth": "NA", "LastInvoiceYear": "NA", "Neighborhood": "NA", "Precinct": "NA", "Zip_code": "32304", "delinquency": "0" }, "geometry": { "type": "Point", "coordinates": [ -84.318541, 30.4594123 ] } },
{ "type": "Feature", "properties": { "PastDue": 221.78, "LastPayAmount": 307.0, "Address": "9520 Woodville Hwy", "LastPaymentMonth": "03", "LastPaymentYear": "2021", "Unit": "NA", "Type": "past due", "LastInvoiceMonth": "NA", "LastInvoiceYear": "NA", "Neighborhood": "NA", "Precinct": "NA", "Zip_code": "32305", "delinquency": "0" }, "geometry": { "type": "Point", "coordinates": [ -84.2477119, 30.3112175 ] } },
{ "type": "Feature", "properties": { "PastDue": 1232.63, "LastPayAmount": 300.0, "Address": "509 Famcee Ave", "LastPaymentMonth": "06", "LastPaymentYear": "2020", "Unit": "NA", "Type": "past due", "LastInvoiceMonth": "NA", "LastInvoiceYear": "NA", "Neighborhood": "NA", "Precinct": "NA", "Zip_code": "32310", "delinquency": "jan2021" }, "geometry": { "type": "Point", "coordinates": [ -84.2904385, 30.4147088 ] } },
{ "type": "Feature", "properties": { "PastDue": 630.0, "LastPayAmount": 150.76, "Address": "1942 Nicklaus Dr", "LastPaymentMonth": "04", "LastPaymentYear": "2021", "Unit": "Apt D", "Type": "past due", "LastInvoiceMonth": "NA", "LastInvoiceYear": "NA", "Neighborhood": "NA", "Precinct": "NA", "Zip_code": "32301", "delinquency": "0" }, "geometry": { "type": "Point", "coordinates": [ -84.244766, 30.415249 ] } },
{ "type": "Feature", "properties": { "PastDue": 312.71, "LastPayAmount": 223.98, "Address": "3313 Sawtooth Dr", "LastPaymentMonth": "04", "LastPaymentYear": "2021", "Unit": "NA", "Type": "past due", "LastInvoiceMonth": "NA", "LastInvoiceYear": "NA", "Neighborhood": "NA", "Precinct": "NA", "Zip_code": "32303", "delinquency": "0" }, "geometry": { "type": "Point", "coordinates": [ -84.347888900000015, 30.487637 ] } },
{ "type": "Feature", "properties": { "PastDue": 892.08, "LastPayAmount": 500.0, "Address": "2055 Thomasville Rd", "LastPaymentMonth": "03", "LastPaymentYear": "2021", "Unit": "Apt B201", "Type": "past due", "LastInvoiceMonth": "NA", "LastInvoiceYear": "NA", "Neighborhood": "NA", "Precinct": "NA", "Zip_code": "32308", "delinquency": "0" }, "geometry": { "type": "Point", "coordinates": [ -84.2647934, 30.470215 ] } },
{ "type": "Feature", "properties": { "PastDue": 1425.89, "LastPayAmount": 430.7, "Address": "1845 S Gadsden St", "LastPaymentMonth": "09", "LastPaymentYear": "2020", "Unit": "NA", "Type": "past due", "LastInvoiceMonth": "NA", "LastInvoiceYear": "NA", "Neighborhood": "NA", "Precinct": "NA", "Zip_code": "32301", "delinquency": "jan2021" }, "geometry": { "type": "Point", "coordinates": [ -84.2778949, 30.4234473 ] } },
{ "type": "Feature", "properties": { "PastDue": 619.34, "LastPayAmount": 400.0, "Address": "1619 Pepper Dr", "LastPaymentMonth": "03", "LastPaymentYear": "2021", "Unit": "NA", "Type": "past due", "LastInvoiceMonth": "NA", "LastInvoiceYear": "NA", "Neighborhood": "NA", "Precinct": "NA", "Zip_code": "32304", "delinquency": "0" }, "geometry": { "type": "Point", "coordinates": [ -84.3086527, 30.429455 ] } },
{ "type": "Feature", "properties": { "PastDue": 335.79, "LastPayAmount": 400.0, "Address": "3501 W Orange Ave", "LastPaymentMonth": "04", "LastPaymentYear": "2021", "Unit": "Lot 24", "Type": "past due", "LastInvoiceMonth": "NA", "LastInvoiceYear": "NA", "Neighborhood": "NA", "Precinct": "NA", "Zip_code": "32310", "delinquency": "0" }, "geometry": { "type": "Point", "coordinates": [ -84.3395075, 30.4139812 ] } },
{ "type": "Feature", "properties": { "PastDue": 281.15, "LastPayAmount": 220.0, "Address": "1012 Woodland Dr", "LastPaymentMonth": "04", "LastPaymentYear": "2021", "Unit": "NA", "Type": "past due", "LastInvoiceMonth": "NA", "LastInvoiceYear": "NA", "Neighborhood": "NA", "Precinct": "NA", "Zip_code": "32305", "delinquency": "0" }, "geometry": { "type": "Point", "coordinates": [ -84.3004303, 30.3950435 ] } },
{ "type": "Feature", "properties": { "PastDue": 2569.9, "LastPayAmount": 175.0, "Address": "275 John Knox Rd", "LastPaymentMonth": "04", "LastPaymentYear": "2021", "Unit": "Apt S108", "Type": "past due", "LastInvoiceMonth": "NA", "LastInvoiceYear": "NA", "Neighborhood": "NA", "Precinct": "NA", "Zip_code": "32303", "delinquency": "0" }, "geometry": { "type": "Point", "coordinates": [ -84.2837969, 30.4729312 ] } },
{ "type": "Feature", "properties": { "PastDue": 293.93, "LastPayAmount": 140.25, "Address": "2826 Waterbrook Ct", "LastPaymentMonth": "04", "LastPaymentYear": "2021", "Unit": "NA", "Type": "past due", "LastInvoiceMonth": "NA", "LastInvoiceYear": "NA", "Neighborhood": "NA", "Precinct": "NA", "Zip_code": "32312", "delinquency": "0" }, "geometry": { "type": "Point", "coordinates": [ -84.289748, 30.48026 ] } },
{ "type": "Feature", "properties": { "PastDue": 600.59, "LastPayAmount": 1553.0, "Address": "3726 Rockbrook Dr", "LastPaymentMonth": "04", "LastPaymentYear": "2021", "Unit": "NA", "Type": "past due", "LastInvoiceMonth": "NA", "LastInvoiceYear": "NA", "Neighborhood": "NA", "Precinct": "NA", "Zip_code": "32311", "delinquency": "0" }, "geometry": { "type": "Point", "coordinates": [ -84.2110612, 30.4343664 ] } },
{ "type": "Feature", "properties": { "PastDue": 2136.64, "LastPayAmount": 500.0, "Address": "4768 Woodville Hwy", "LastPaymentMonth": "03", "LastPaymentYear": "2021", "Unit": "Apt 1512", "Type": "past due", "LastInvoiceMonth": "NA", "LastInvoiceYear": "NA", "Neighborhood": "NA", "Precinct": "NA", "Zip_code": "32305", "delinquency": "0" }, "geometry": { "type": "Point", "coordinates": [ -84.2760235, 30.3728645 ] } },
{ "type": "Feature", "properties": { "PastDue": 601.61, "LastPayAmount": 104.0, "Address": "2221 S Meridian St", "LastPaymentMonth": "10", "LastPaymentYear": "2020", "Unit": "Apt 4", "Type": "past due", "LastInvoiceMonth": "NA", "LastInvoiceYear": "NA", "Neighborhood": "NA", "Precinct": "NA", "Zip_code": "32301", "delinquency": "jan2021" }, "geometry": { "type": "Point", "coordinates": [ -84.276805, 30.4191601 ] } },
{ "type": "Feature", "properties": { "PastDue": 709.53, "LastPayAmount": 341.94, "Address": "1940 Secret Harbor Ct", "LastPaymentMonth": "12", "LastPaymentYear": "2020", "Unit": "NA", "Type": "past due", "LastInvoiceMonth": "NA", "LastInvoiceYear": "NA", "Neighborhood": "NA", "Precinct": "NA", "Zip_code": "32303", "delinquency": "jan2021" }, "geometry": { "type": "Point", "coordinates": [ -84.344861, 30.474482 ] } },
{ "type": "Feature", "properties": { "PastDue": 250.71, "LastPayAmount": 259.74, "Address": "3413 Cornelia St", "LastPaymentMonth": "04", "LastPaymentYear": "2021", "Unit": "NA", "Type": "past due", "LastInvoiceMonth": "NA", "LastInvoiceYear": "NA", "Neighborhood": "NA", "Precinct": "NA", "Zip_code": "32305", "delinquency": "0" }, "geometry": { "type": "Point", "coordinates": [ -84.2727217, 30.4007033 ] } },
{ "type": "Feature", "properties": { "PastDue": 475.5, "LastPayAmount": 31.17, "Address": "5746 J P Ln", "LastPaymentMonth": "04", "LastPaymentYear": "2021", "Unit": "NA", "Type": "past due", "LastInvoiceMonth": "NA", "LastInvoiceYear": "NA", "Neighborhood": "NA", "Precinct": "NA", "Zip_code": "32304", "delinquency": "0" }, "geometry": { "type": "Point", "coordinates": [ -84.373536, 30.4402736 ] } },
{ "type": "Feature", "properties": { "PastDue": 1120.84, "LastPayAmount": 588.7, "Address": "1350 Linda Ann Dr", "LastPaymentMonth": "09", "LastPaymentYear": "2020", "Unit": "NA", "Type": "past due", "LastInvoiceMonth": "NA", "LastInvoiceYear": "NA", "Neighborhood": "NA", "Precinct": "NA", "Zip_code": "32301", "delinquency": "jan2021" }, "geometry": { "type": "Point", "coordinates": [ -84.2444051, 30.427899 ] } },
{ "type": "Feature", "properties": { "PastDue": 980.35, "LastPayAmount": 503.89, "Address": "11446 Bright Star Cir", "LastPaymentMonth": "12", "LastPaymentYear": "2020", "Unit": "NA", "Type": "past due", "LastInvoiceMonth": "NA", "LastInvoiceYear": "NA", "Neighborhood": "NA", "Precinct": "NA", "Zip_code": "32305", "delinquency": "jan2021" }, "geometry": { "type": "Point", "coordinates": [ -84.2352271, 30.2815367 ] } },
{ "type": "Feature", "properties": { "PastDue": 3986.98, "LastPayAmount": 2000.0, "Address": "6616 Spicewood Ln", "LastPaymentMonth": "04", "LastPaymentYear": "2021", "Unit": "NA", "Type": "past due", "LastInvoiceMonth": "NA", "LastInvoiceYear": "NA", "Neighborhood": "NA", "Precinct": "NA", "Zip_code": "32312", "delinquency": "0" }, "geometry": { "type": "Point", "coordinates": [ -84.2560742, 30.5667342 ] } },
{ "type": "Feature", "properties": { "PastDue": 2851.63, "LastPayAmount": 1535.48, "Address": "3222 Dungarvan Dr", "LastPaymentMonth": "04", "LastPaymentYear": "2021", "Unit": "NA", "Type": "past due", "LastInvoiceMonth": "NA", "LastInvoiceYear": "NA", "Neighborhood": "NA", "Precinct": "NA", "Zip_code": "32309", "delinquency": "0" }, "geometry": { "type": "Point", "coordinates": [ -84.197665, 30.523907 ] } },
{ "type": "Feature", "properties": { "PastDue": 1745.73, "LastPayAmount": 620.97, "Address": "410 Victory Garden Dr", "LastPaymentMonth": "06", "LastPaymentYear": "2020", "Unit": "Apt 42", "Type": "past due", "LastInvoiceMonth": "NA", "LastInvoiceYear": "NA", "Neighborhood": "NA", "Precinct": "NA", "Zip_code": "32301", "delinquency": "jan2021" }, "geometry": { "type": "Point", "coordinates": [ -84.2420387, 30.4403767 ] } },
{ "type": "Feature", "properties": { "PastDue": 2183.2, "LastPayAmount": 397.39, "Address": "2999 Olson Rd", "LastPaymentMonth": "08", "LastPaymentYear": "2020", "Unit": "NA", "Type": "past due", "LastInvoiceMonth": "NA", "LastInvoiceYear": "NA", "Neighborhood": "NA", "Precinct": "NA", "Zip_code": "32308", "delinquency": "jan2021" }, "geometry": { "type": "Point", "coordinates": [ -84.2289144, 30.4856326 ] } },
{ "type": "Feature", "properties": { "PastDue": 2420.84, "LastPayAmount": 243.0, "Address": "215 Hayden Rd", "LastPaymentMonth": "08", "LastPaymentYear": "2020", "Unit": "Apt 120B", "Type": "past due", "LastInvoiceMonth": "NA", "LastInvoiceYear": "NA", "Neighborhood": "NA", "Precinct": "NA", "Zip_code": "32304", "delinquency": "jan2021" }, "geometry": { "type": "Point", "coordinates": [ -84.3068233, 30.4394013 ] } },
{ "type": "Feature", "properties": { "PastDue": 263.54, "LastPayAmount": 263.54, "Address": "406 Americana St", "LastPaymentMonth": "04", "LastPaymentYear": "2021", "Unit": "NA", "Type": "past due", "LastInvoiceMonth": "NA", "LastInvoiceYear": "NA", "Neighborhood": "NA", "Precinct": "NA", "Zip_code": "32305", "delinquency": "0" }, "geometry": { "type": "Point", "coordinates": [ -84.288588, 30.3990142 ] } },
{ "type": "Feature", "properties": { "PastDue": 1133.97, "LastPayAmount": 206.29, "Address": "2405 Almond Dr", "LastPaymentMonth": "04", "LastPaymentYear": "2020", "Unit": "NA", "Type": "past due", "LastInvoiceMonth": "NA", "LastInvoiceYear": "NA", "Neighborhood": "NA", "Precinct": "NA", "Zip_code": "32303", "delinquency": "jan2021" }, "geometry": { "type": "Point", "coordinates": [ -84.2987857, 30.4744158 ] } },
{ "type": "Feature", "properties": { "PastDue": 2107.51, "LastPayAmount": 676.21, "Address": "5152 Maverick Ln", "LastPaymentMonth": "09", "LastPaymentYear": "2020", "Unit": "NA", "Type": "past due", "LastInvoiceMonth": "NA", "LastInvoiceYear": "NA", "Neighborhood": "NA", "Precinct": "NA", "Zip_code": "32304", "delinquency": "jan2021" }, "geometry": { "type": "Point", "coordinates": [ -84.362923, 30.455592 ] } },
{ "type": "Feature", "properties": { "PastDue": 2377.25, "LastPayAmount": 200.0, "Address": "2067 Continental Ave", "LastPaymentMonth": "05", "LastPaymentYear": "2020", "Unit": "NA", "Type": "past due", "LastInvoiceMonth": "NA", "LastInvoiceYear": "NA", "Neighborhood": "NA", "Precinct": "NA", "Zip_code": "32304", "delinquency": "jan2021" }, "geometry": { "type": "Point", "coordinates": [ -84.316505, 30.454683 ] } },
{ "type": "Feature", "properties": { "PastDue": 3501.24, "LastPayAmount": 100.0, "Address": "1009 Delaware St", "LastPaymentMonth": "08", "LastPaymentYear": "2020", "Unit": "NA", "Type": "past due", "LastInvoiceMonth": "NA", "LastInvoiceYear": "NA", "Neighborhood": "NA", "Precinct": "NA", "Zip_code": "32304", "delinquency": "jan2021" }, "geometry": { "type": "Point", "coordinates": [ -84.2995669, 30.4521154 ] } },
{ "type": "Feature", "properties": { "PastDue": 303.0, "LastPayAmount": 238.9, "Address": "1873 Page Rd", "LastPaymentMonth": "04", "LastPaymentYear": "2021", "Unit": "NA", "Type": "past due", "LastInvoiceMonth": "NA", "LastInvoiceYear": "NA", "Neighborhood": "NA", "Precinct": "NA", "Zip_code": "32305", "delinquency": "0" }, "geometry": { "type": "Point", "coordinates": [ -84.2470389, 30.317528 ] } },
{ "type": "Feature", "properties": { "PastDue": 320.66, "LastPayAmount": 100.0, "Address": "1405 Southwood Plantation Rd", "LastPaymentMonth": "03", "LastPaymentYear": "2021", "Unit": "Unit 6304", "Type": "past due", "LastInvoiceMonth": "NA", "LastInvoiceYear": "NA", "Neighborhood": "NA", "Precinct": "NA", "Zip_code": "32311", "delinquency": "0" }, "geometry": { "type": "Point", "coordinates": [ -84.2088292, 30.4255535 ] } },
{ "type": "Feature", "properties": { "PastDue": 264.0, "LastPayAmount": 350.0, "Address": "10749 Sycamore Ridge Ln", "LastPaymentMonth": "04", "LastPaymentYear": "2021", "Unit": "NA", "Type": "past due", "LastInvoiceMonth": "NA", "LastInvoiceYear": "NA", "Neighborhood": "NA", "Precinct": "NA", "Zip_code": "32305", "delinquency": "0" }, "geometry": { "type": "Point", "coordinates": [ -84.2384787, 30.3092949 ] } },
{ "type": "Feature", "properties": { "PastDue": 301.46, "LastPayAmount": 400.0, "Address": "2995 Nutmeg Ct", "LastPaymentMonth": "03", "LastPaymentYear": "2021", "Unit": "NA", "Type": "past due", "LastInvoiceMonth": "NA", "LastInvoiceYear": "NA", "Neighborhood": "NA", "Precinct": "NA", "Zip_code": "32308", "delinquency": "0" }, "geometry": { "type": "Point", "coordinates": [ -84.226004, 30.4715518 ] } },
{ "type": "Feature", "properties": { "PastDue": 3335.36, "LastPayAmount": 300.0, "Address": "3221 Zillah St", "LastPaymentMonth": "02", "LastPaymentYear": "2021", "Unit": "NA", "Type": "past due", "LastInvoiceMonth": "NA", "LastInvoiceYear": "NA", "Neighborhood": "NA", "Precinct": "NA", "Zip_code": "32305", "delinquency": "0" }, "geometry": { "type": "Point", "coordinates": [ -84.2685987, 30.4038832 ] } },
{ "type": "Feature", "properties": { "PastDue": 2008.47, "LastPayAmount": 446.84, "Address": "1325 Old Village Rd", "LastPaymentMonth": "10", "LastPaymentYear": "2020", "Unit": "NA", "Type": "past due", "LastInvoiceMonth": "NA", "LastInvoiceYear": "NA", "Neighborhood": "NA", "Precinct": "NA", "Zip_code": "32312", "delinquency": "jan2021" }, "geometry": { "type": "Point", "coordinates": [ -84.2538729, 30.5127979 ] } },
{ "type": "Feature", "properties": { "PastDue": 558.63, "LastPayAmount": 500.0, "Address": "977 Balkin Rd", "LastPaymentMonth": "04", "LastPaymentYear": "2021", "Unit": "NA", "Type": "past due", "LastInvoiceMonth": "NA", "LastInvoiceYear": "NA", "Neighborhood": "NA", "Precinct": "NA", "Zip_code": "32305", "delinquency": "0" }, "geometry": { "type": "Point", "coordinates": [ -84.2922889, 30.3835599 ] } },
{ "type": "Feature", "properties": { "PastDue": 652.35, "LastPayAmount": 900.0, "Address": "736 W Pensacola St", "LastPaymentMonth": "11", "LastPaymentYear": "2020", "Unit": "Unit 1", "Type": "past due", "LastInvoiceMonth": "NA", "LastInvoiceYear": "NA", "Neighborhood": "NA", "Precinct": "NA", "Zip_code": "32304", "delinquency": "jan2021" }, "geometry": { "type": "Point", "coordinates": [ -84.295542, 30.4389285 ] } },
{ "type": "Feature", "properties": { "PastDue": 607.4, "LastPayAmount": 375.0, "Address": "610 Putnam Dr", "LastPaymentMonth": "03", "LastPaymentYear": "2021", "Unit": "NA", "Type": "past due", "LastInvoiceMonth": "NA", "LastInvoiceYear": "NA", "Neighborhood": "NA", "Precinct": "NA", "Zip_code": "32301", "delinquency": "0" }, "geometry": { "type": "Point", "coordinates": [ -84.2742342, 30.4170961 ] } },
{ "type": "Feature", "properties": { "PastDue": 524.98, "LastPayAmount": 500.0, "Address": "3210 Tanager Ct", "LastPaymentMonth": "11", "LastPaymentYear": "2020", "Unit": "Apt C", "Type": "past due", "LastInvoiceMonth": "NA", "LastInvoiceYear": "NA", "Neighborhood": "NA", "Precinct": "NA", "Zip_code": "32308", "delinquency": "jan2021" }, "geometry": { "type": "Point", "coordinates": [ -84.2499812, 30.4940462 ] } },
{ "type": "Feature", "properties": { "PastDue": 234.75, "LastPayAmount": 254.43, "Address": "4516 Deslin Dr", "LastPaymentMonth": "04", "LastPaymentYear": "2021", "Unit": "NA", "Type": "past due", "LastInvoiceMonth": "NA", "LastInvoiceYear": "NA", "Neighborhood": "NA", "Precinct": "NA", "Zip_code": "32305", "delinquency": "0" }, "geometry": { "type": "Point", "coordinates": [ -84.2811853, 30.3863511 ] } },
{ "type": "Feature", "properties": { "PastDue": 333.8, "LastPayAmount": 400.0, "Address": "3514 Toucan Dr", "LastPaymentMonth": "04", "LastPaymentYear": "2021", "Unit": "NA", "Type": "past due", "LastInvoiceMonth": "NA", "LastInvoiceYear": "NA", "Neighborhood": "NA", "Precinct": "NA", "Zip_code": "32305", "delinquency": "0" }, "geometry": { "type": "Point", "coordinates": [ -84.3022209, 30.396107 ] } },
{ "type": "Feature", "properties": { "PastDue": 200.56, "LastPayAmount": 211.67, "Address": "2008 E Park Ave", "LastPaymentMonth": "02", "LastPaymentYear": "2021", "Unit": "Apt A", "Type": "past due", "LastInvoiceMonth": "NA", "LastInvoiceYear": "NA", "Neighborhood": "NA", "Precinct": "NA", "Zip_code": "32301", "delinquency": "0" }, "geometry": { "type": "Point", "coordinates": [ -84.2425738, 30.4420599 ] } },
{ "type": "Feature", "properties": { "PastDue": 392.11, "LastPayAmount": 100.0, "Address": "2301 Old Bainbridge Rd", "LastPaymentMonth": "03", "LastPaymentYear": "2021", "Unit": "Apt R1901", "Type": "past due", "LastInvoiceMonth": "NA", "LastInvoiceYear": "NA", "Neighborhood": "NA", "Precinct": "NA", "Zip_code": "32303", "delinquency": "0" }, "geometry": { "type": "Point", "coordinates": [ -84.3088259, 30.4725603 ] } },
{ "type": "Feature", "properties": { "PastDue": 1414.47, "LastPayAmount": 200.0, "Address": "2221 Orange Ave", "LastPaymentMonth": "09", "LastPaymentYear": "2020", "Unit": "Apt 814", "Type": "past due", "LastInvoiceMonth": "NA", "LastInvoiceYear": "NA", "Neighborhood": "NA", "Precinct": "NA", "Zip_code": "32311", "delinquency": "jan2021" }, "geometry": { "type": "Point", "coordinates": [ -84.2413803, 30.4102029 ] } },
{ "type": "Feature", "properties": { "PastDue": 450.64, "LastPayAmount": 220.0, "Address": "439 Cactus St", "LastPaymentMonth": "03", "LastPaymentYear": "2021", "Unit": "NA", "Type": "past due", "LastInvoiceMonth": "NA", "LastInvoiceYear": "NA", "Neighborhood": "NA", "Precinct": "NA", "Zip_code": "32304", "delinquency": "0" }, "geometry": { "type": "Point", "coordinates": [ -84.3329331, 30.4485762 ] } },
{ "type": "Feature", "properties": { "PastDue": 448.51, "LastPayAmount": 238.17, "Address": "1405 Southwood Plantation Rd", "LastPaymentMonth": "11", "LastPaymentYear": "2020", "Unit": "Unit 5104", "Type": "past due", "LastInvoiceMonth": "NA", "LastInvoiceYear": "NA", "Neighborhood": "NA", "Precinct": "NA", "Zip_code": "32311", "delinquency": "jan2021" }, "geometry": { "type": "Point", "coordinates": [ -84.2088292, 30.4255535 ] } },
{ "type": "Feature", "properties": { "PastDue": 2087.63, "LastPayAmount": 1000.0, "Address": "408 Cloverdale Dr", "LastPaymentMonth": "03", "LastPaymentYear": "2021", "Unit": "NA", "Type": "past due", "LastInvoiceMonth": "NA", "LastInvoiceYear": "NA", "Neighborhood": "NA", "Precinct": "NA", "Zip_code": "32312", "delinquency": "0" }, "geometry": { "type": "Point", "coordinates": [ -84.275571, 30.5032406 ] } },
{ "type": "Feature", "properties": { "PastDue": 1255.56, "LastPayAmount": 712.55, "Address": "1335 Airport Dr", "LastPaymentMonth": "09", "LastPaymentYear": "2020", "Unit": "Apt G6", "Type": "past due", "LastInvoiceMonth": "NA", "LastInvoiceYear": "NA", "Neighborhood": "NA", "Precinct": "NA", "Zip_code": "32304", "delinquency": "jan2021" }, "geometry": { "type": "Point", "coordinates": [ -84.3041922, 30.4305842 ] } },
{ "type": "Feature", "properties": { "PastDue": 249.03, "LastPayAmount": 249.03, "Address": "211 Ross Rd", "LastPaymentMonth": "04", "LastPaymentYear": "2021", "Unit": "NA", "Type": "past due", "LastInvoiceMonth": "NA", "LastInvoiceYear": "NA", "Neighborhood": "NA", "Precinct": "NA", "Zip_code": "32305", "delinquency": "0" }, "geometry": { "type": "Point", "coordinates": [ -84.2853391, 30.3815065 ] } },
{ "type": "Feature", "properties": { "PastDue": 836.06, "LastPayAmount": 50.0, "Address": "2074 Midyette Rd", "LastPaymentMonth": "04", "LastPaymentYear": "2021", "Unit": "Apt 1324", "Type": "past due", "LastInvoiceMonth": "NA", "LastInvoiceYear": "NA", "Neighborhood": "NA", "Precinct": "NA", "Zip_code": "32301", "delinquency": "0" }, "geometry": { "type": "Point", "coordinates": [ -84.237634899999989, 30.4178888 ] } },
{ "type": "Feature", "properties": { "PastDue": 3660.99, "LastPayAmount": 45.0, "Address": "1310 Appleyard Dr", "LastPaymentMonth": "07", "LastPaymentYear": "2020", "Unit": "NA", "Type": "past due", "LastInvoiceMonth": "NA", "LastInvoiceYear": "NA", "Neighborhood": "NA", "Precinct": "NA", "Zip_code": "32304", "delinquency": "jan2021" }, "geometry": { "type": "Point", "coordinates": [ -84.338081699999989, 30.4597631 ] } },
{ "type": "Feature", "properties": { "PastDue": 200.43, "LastPayAmount": 213.51, "Address": "3978 Gaffney Loop", "LastPaymentMonth": "04", "LastPaymentYear": "2021", "Unit": "NA", "Type": "past due", "LastInvoiceMonth": "NA", "LastInvoiceYear": "NA", "Neighborhood": "NA", "Precinct": "NA", "Zip_code": "32303", "delinquency": "0" }, "geometry": { "type": "Point", "coordinates": [ -84.3436265, 30.4878897 ] } },
{ "type": "Feature", "properties": { "PastDue": 1353.41, "LastPayAmount": 2034.05, "Address": "3827 Roswell Dr", "LastPaymentMonth": "04", "LastPaymentYear": "2021", "Unit": "NA", "Type": "past due", "LastInvoiceMonth": "NA", "LastInvoiceYear": "NA", "Neighborhood": "NA", "Precinct": "NA", "Zip_code": "32310", "delinquency": "0" }, "geometry": { "type": "Point", "coordinates": [ -84.340997, 30.4284362 ] } },
{ "type": "Feature", "properties": { "PastDue": 328.84, "LastPayAmount": 664.84, "Address": "132 Dixie Dr", "LastPaymentMonth": "02", "LastPaymentYear": "2021", "Unit": "Apt 3", "Type": "past due", "LastInvoiceMonth": "NA", "LastInvoiceYear": "NA", "Neighborhood": "NA", "Precinct": "NA", "Zip_code": "32304", "delinquency": "0" }, "geometry": { "type": "Point", "coordinates": [ -84.3287937, 30.4430181 ] } },
{ "type": "Feature", "properties": { "PastDue": 679.06, "LastPayAmount": 72.73, "Address": "101 Stadium Dr", "LastPaymentMonth": "07", "LastPaymentYear": "2020", "Unit": "Apt 211", "Type": "past due", "LastInvoiceMonth": "NA", "LastInvoiceYear": "NA", "Neighborhood": "NA", "Precinct": "NA", "Zip_code": "32304", "delinquency": "jan2021" }, "geometry": { "type": "Point", "coordinates": [ -84.307188, 30.448217 ] } },
{ "type": "Feature", "properties": { "PastDue": 209.75, "LastPayAmount": 371.67, "Address": "703 Putnam Dr", "LastPaymentMonth": "04", "LastPaymentYear": "2021", "Unit": "Apt 2", "Type": "past due", "LastInvoiceMonth": "NA", "LastInvoiceYear": "NA", "Neighborhood": "NA", "Precinct": "NA", "Zip_code": "32301", "delinquency": "0" }, "geometry": { "type": "Point", "coordinates": [ -84.2729385, 30.4164786 ] } },
{ "type": "Feature", "properties": { "PastDue": 205.75, "LastPayAmount": 320.39, "Address": "217 Ross Rd", "LastPaymentMonth": "04", "LastPaymentYear": "2021", "Unit": "NA", "Type": "past due", "LastInvoiceMonth": "NA", "LastInvoiceYear": "NA", "Neighborhood": "NA", "Precinct": "NA", "Zip_code": "32305", "delinquency": "0" }, "geometry": { "type": "Point", "coordinates": [ -84.2849073, 30.3814917 ] } },
{ "type": "Feature", "properties": { "PastDue": 1508.9, "LastPayAmount": 500.0, "Address": "1921 Maymeadow Ln", "LastPaymentMonth": "04", "LastPaymentYear": "2021", "Unit": "NA", "Type": "past due", "LastInvoiceMonth": "NA", "LastInvoiceYear": "NA", "Neighborhood": "NA", "Precinct": "NA", "Zip_code": "32303", "delinquency": "0" }, "geometry": { "type": "Point", "coordinates": [ -84.317276, 30.47392 ] } },
{ "type": "Feature", "properties": { "PastDue": 428.23, "LastPayAmount": 100.0, "Address": "2553 Vista Rise", "LastPaymentMonth": "02", "LastPaymentYear": "2021", "Unit": "Apt A", "Type": "past due", "LastInvoiceMonth": "NA", "LastInvoiceYear": "NA", "Neighborhood": "NA", "Precinct": "NA", "Zip_code": "32304", "delinquency": "0" }, "geometry": { "type": "Point", "coordinates": [ -84.334772, 30.4565839 ] } },
{ "type": "Feature", "properties": { "PastDue": 774.71, "LastPayAmount": 499.0, "Address": "2325 W Pensacola St", "LastPaymentMonth": "09", "LastPaymentYear": "2020", "Unit": "Apt 119", "Type": "past due", "LastInvoiceMonth": "NA", "LastInvoiceYear": "NA", "Neighborhood": "NA", "Precinct": "NA", "Zip_code": "32304", "delinquency": "jan2021" }, "geometry": { "type": "Point", "coordinates": [ -84.3253141, 30.4406246 ] } },
{ "type": "Feature", "properties": { "PastDue": 1215.36, "LastPayAmount": 324.94, "Address": "1625 Centerville Rd", "LastPaymentMonth": "07", "LastPaymentYear": "2020", "Unit": "Apt 52", "Type": "past due", "LastInvoiceMonth": "NA", "LastInvoiceYear": "NA", "Neighborhood": "NA", "Precinct": "NA", "Zip_code": "32308", "delinquency": "jan2021" }, "geometry": { "type": "Point", "coordinates": [ -84.2527382, 30.4665013 ] } },
{ "type": "Feature", "properties": { "PastDue": 201.77, "LastPayAmount": 400.0, "Address": "1445 Willow Bend Way", "LastPaymentMonth": "04", "LastPaymentYear": "2021", "Unit": "Apt B", "Type": "past due", "LastInvoiceMonth": "NA", "LastInvoiceYear": "NA", "Neighborhood": "NA", "Precinct": "NA", "Zip_code": "32301", "delinquency": "0" }, "geometry": { "type": "Point", "coordinates": [ -84.2498783, 30.4172837 ] } },
{ "type": "Feature", "properties": { "PastDue": 2062.65, "LastPayAmount": 500.0, "Address": "3177 Allison Marie Ct", "LastPaymentMonth": "10", "LastPaymentYear": "2020", "Unit": "NA", "Type": "past due", "LastInvoiceMonth": "NA", "LastInvoiceYear": "NA", "Neighborhood": "NA", "Precinct": "NA", "Zip_code": "32304", "delinquency": "jan2021" }, "geometry": { "type": "Point", "coordinates": [ -84.3471283, 30.4594039 ] } },
{ "type": "Feature", "properties": { "PastDue": 1692.63, "LastPayAmount": 1500.0, "Address": "9560 Old Woodville Rd", "LastPaymentMonth": "03", "LastPaymentYear": "2021", "Unit": "NA", "Type": "past due", "LastInvoiceMonth": "NA", "LastInvoiceYear": "NA", "Neighborhood": "NA", "Precinct": "NA", "Zip_code": "32305", "delinquency": "0" }, "geometry": { "type": "Point", "coordinates": [ -84.2489113, 30.3085184 ] } },
{ "type": "Feature", "properties": { "PastDue": 341.11, "LastPayAmount": 150.0, "Address": "2933 Mission Rd", "LastPaymentMonth": "04", "LastPaymentYear": "2021", "Unit": "Apt 39", "Type": "past due", "LastInvoiceMonth": "NA", "LastInvoiceYear": "NA", "Neighborhood": "NA", "Precinct": "NA", "Zip_code": "32304", "delinquency": "0" }, "geometry": { "type": "Point", "coordinates": [ -84.3437441, 30.4641866 ] } },
{ "type": "Feature", "properties": { "PastDue": 2191.34, "LastPayAmount": 800.0, "Address": "1031 Delaware St", "LastPaymentMonth": "04", "LastPaymentYear": "2021", "Unit": "NA", "Type": "past due", "LastInvoiceMonth": "NA", "LastInvoiceYear": "NA", "Neighborhood": "NA", "Precinct": "NA", "Zip_code": "32304", "delinquency": "0" }, "geometry": { "type": "Point", "coordinates": [ -84.300389200000012, 30.4521064 ] } },
{ "type": "Feature", "properties": { "PastDue": 483.64, "LastPayAmount": 125.14, "Address": "100 Cadiz St", "LastPaymentMonth": "09", "LastPaymentYear": "2020", "Unit": "Apt 110", "Type": "past due", "LastInvoiceMonth": "NA", "LastInvoiceYear": "NA", "Neighborhood": "NA", "Precinct": "NA", "Zip_code": "32301", "delinquency": "jan2021" }, "geometry": { "type": "Point", "coordinates": [ -84.2712931, 30.4420657 ] } },
{ "type": "Feature", "properties": { "PastDue": 356.22, "LastPayAmount": 400.0, "Address": "740 White Dr", "LastPaymentMonth": "02", "LastPaymentYear": "2021", "Unit": "Lot 7", "Type": "past due", "LastInvoiceMonth": "NA", "LastInvoiceYear": "NA", "Neighborhood": "NA", "Precinct": "NA", "Zip_code": "32304", "delinquency": "0" }, "geometry": { "type": "Point", "coordinates": [ -84.326342, 30.450551 ] } },
{ "type": "Feature", "properties": { "PastDue": 735.62, "LastPayAmount": 234.21, "Address": "2799 Summer Meadow Ln", "LastPaymentMonth": "01", "LastPaymentYear": "2021", "Unit": "NA", "Type": "past due", "LastInvoiceMonth": "NA", "LastInvoiceYear": "NA", "Neighborhood": "NA", "Precinct": "NA", "Zip_code": "32303", "delinquency": "0" }, "geometry": { "type": "Point", "coordinates": [ -84.3256285, 30.4805621 ] } },
{ "type": "Feature", "properties": { "PastDue": 215.47, "LastPayAmount": 214.91, "Address": "3131 McCord Blvd", "LastPaymentMonth": "03", "LastPaymentYear": "2021", "Unit": "NA", "Type": "past due", "LastInvoiceMonth": "NA", "LastInvoiceYear": "NA", "Neighborhood": "NA", "Precinct": "NA", "Zip_code": "32303", "delinquency": "0" }, "geometry": { "type": "Point", "coordinates": [ -84.3384495, 30.4870376 ] } },
{ "type": "Feature", "properties": { "PastDue": 961.8, "LastPayAmount": 300.0, "Address": "2485 Raymond Diehl Rd", "LastPaymentMonth": "04", "LastPaymentYear": "2021", "Unit": "NA", "Type": "past due", "LastInvoiceMonth": "NA", "LastInvoiceYear": "NA", "Neighborhood": "NA", "Precinct": "NA", "Zip_code": "32309", "delinquency": "0" }, "geometry": { "type": "Point", "coordinates": [ -84.2355976, 30.5021321 ] } },
{ "type": "Feature", "properties": { "PastDue": 1527.31, "LastPayAmount": 500.0, "Address": "1333 N Duval St", "LastPaymentMonth": "12", "LastPaymentYear": "2020", "Unit": "NA", "Type": "past due", "LastInvoiceMonth": "NA", "LastInvoiceYear": "NA", "Neighborhood": "NA", "Precinct": "NA", "Zip_code": "32303", "delinquency": "jan2021" }, "geometry": { "type": "Point", "coordinates": [ -84.2828304, 30.4576186 ] } },
{ "type": "Feature", "properties": { "PastDue": 2439.22, "LastPayAmount": 159.5, "Address": "1409 Shallow Brk", "LastPaymentMonth": "02", "LastPaymentYear": "2020", "Unit": "Apt A", "Type": "past due", "LastInvoiceMonth": "NA", "LastInvoiceYear": "NA", "Neighborhood": "NA", "Precinct": "NA", "Zip_code": "32301", "delinquency": "march2020" }, "geometry": { "type": "Point", "coordinates": [ -84.2502281, 30.4160205 ] } },
{ "type": "Feature", "properties": { "PastDue": 776.47, "LastPayAmount": 990.0, "Address": "471 Brooke Hampton Dr", "LastPaymentMonth": "04", "LastPaymentYear": "2021", "Unit": "NA", "Type": "past due", "LastInvoiceMonth": "NA", "LastInvoiceYear": "NA", "Neighborhood": "NA", "Precinct": "NA", "Zip_code": "32311", "delinquency": "0" }, "geometry": { "type": "Point", "coordinates": [ -84.2644437, 30.3974645 ] } },
{ "type": "Feature", "properties": { "PastDue": 202.28, "LastPayAmount": 205.8, "Address": "1110 Richardson Rd", "LastPaymentMonth": "04", "LastPaymentYear": "2021", "Unit": "NA", "Type": "past due", "LastInvoiceMonth": "NA", "LastInvoiceYear": "NA", "Neighborhood": "NA", "Precinct": "NA", "Zip_code": "NA", "delinquency": "0" }, "geometry": { "type": "Point", "coordinates": [ -84.7170695, 30.5555019 ] } },
{ "type": "Feature", "properties": { "PastDue": 969.81, "LastPayAmount": 350.0, "Address": "4100 Cornish Dr", "LastPaymentMonth": "04", "LastPaymentYear": "2021", "Unit": "NA", "Type": "past due", "LastInvoiceMonth": "NA", "LastInvoiceYear": "NA", "Neighborhood": "NA", "Precinct": "NA", "Zip_code": "32303", "delinquency": "0" }, "geometry": { "type": "Point", "coordinates": [ -84.3268614, 30.5089986 ] } },
{ "type": "Feature", "properties": { "PastDue": 4842.87, "LastPayAmount": 300.0, "Address": "3535 Roberts Ave", "LastPaymentMonth": "05", "LastPaymentYear": "2020", "Unit": "Lot 107", "Type": "past due", "LastInvoiceMonth": "NA", "LastInvoiceYear": "NA", "Neighborhood": "NA", "Precinct": "NA", "Zip_code": "32310", "delinquency": "jan2021" }, "geometry": { "type": "Point", "coordinates": [ -84.338676, 30.426287 ] } },
{ "type": "Feature", "properties": { "PastDue": 3921.91, "LastPayAmount": 1500.0, "Address": "828 Ingleside Ave", "LastPaymentMonth": "04", "LastPaymentYear": "2021", "Unit": "Apt 1", "Type": "past due", "LastInvoiceMonth": "NA", "LastInvoiceYear": "NA", "Neighborhood": "NA", "Precinct": "NA", "Zip_code": "32303", "delinquency": "0" }, "geometry": { "type": "Point", "coordinates": [ -84.2685575, 30.454751 ] } },
{ "type": "Feature", "properties": { "PastDue": 299.63, "LastPayAmount": 460.0, "Address": "2814 Harwood St", "LastPaymentMonth": "04", "LastPaymentYear": "2021", "Unit": "NA", "Type": "past due", "LastInvoiceMonth": "NA", "LastInvoiceYear": "NA", "Neighborhood": "NA", "Precinct": "NA", "Zip_code": "32301", "delinquency": "0" }, "geometry": { "type": "Point", "coordinates": [ -84.2727123, 30.4114214 ] } },
{ "type": "Feature", "properties": { "PastDue": 811.91, "LastPayAmount": 400.65, "Address": "1235 Buckingham Dr", "LastPaymentMonth": "04", "LastPaymentYear": "2021", "Unit": "Apt 2", "Type": "past due", "LastInvoiceMonth": "NA", "LastInvoiceYear": "NA", "Neighborhood": "NA", "Precinct": "NA", "Zip_code": "32308", "delinquency": "0" }, "geometry": { "type": "Point", "coordinates": [ -84.2533386, 30.456952 ] } },
{ "type": "Feature", "properties": { "PastDue": 1449.22, "LastPayAmount": 200.0, "Address": "901 Riggins Rd", "LastPaymentMonth": "02", "LastPaymentYear": "2021", "Unit": "Apt 932", "Type": "past due", "LastInvoiceMonth": "NA", "LastInvoiceYear": "NA", "Neighborhood": "NA", "Precinct": "NA", "Zip_code": "32308", "delinquency": "0" }, "geometry": { "type": "Point", "coordinates": [ -84.235655, 30.454353 ] } },
{ "type": "Feature", "properties": { "PastDue": 247.58, "LastPayAmount": 257.38, "Address": "400 Hayden Rd", "LastPaymentMonth": "03", "LastPaymentYear": "2021", "Unit": "Apt 255", "Type": "past due", "LastInvoiceMonth": "NA", "LastInvoiceYear": "NA", "Neighborhood": "NA", "Precinct": "NA", "Zip_code": "32304", "delinquency": "0" }, "geometry": { "type": "Point", "coordinates": [ -84.3085088, 30.4353926 ] } },
{ "type": "Feature", "properties": { "PastDue": 243.02, "LastPayAmount": 607.19, "Address": "1909 Sunset Ln", "LastPaymentMonth": "04", "LastPaymentYear": "2021", "Unit": "NA", "Type": "past due", "LastInvoiceMonth": "NA", "LastInvoiceYear": "NA", "Neighborhood": "NA", "Precinct": "NA", "Zip_code": "32303", "delinquency": "0" }, "geometry": { "type": "Point", "coordinates": [ -84.320491, 30.4663917 ] } },
{ "type": "Feature", "properties": { "PastDue": 234.0, "LastPayAmount": 500.0, "Address": "2341 Hartsfield Way", "LastPaymentMonth": "03", "LastPaymentYear": "2021", "Unit": "NA", "Type": "past due", "LastInvoiceMonth": "NA", "LastInvoiceYear": "NA", "Neighborhood": "NA", "Precinct": "NA", "Zip_code": "32303", "delinquency": "0" }, "geometry": { "type": "Point", "coordinates": [ -84.3248373, 30.4721753 ] } },
{ "type": "Feature", "properties": { "PastDue": 3206.35, "LastPayAmount": 250.0, "Address": "3535 Roberts Ave", "LastPaymentMonth": "02", "LastPaymentYear": "2020", "Unit": "Lot 62", "Type": "past due", "LastInvoiceMonth": "NA", "LastInvoiceYear": "NA", "Neighborhood": "NA", "Precinct": "NA", "Zip_code": "32310", "delinquency": "march2020" }, "geometry": { "type": "Point", "coordinates": [ -84.338676, 30.426287 ] } },
{ "type": "Feature", "properties": { "PastDue": 242.09, "LastPayAmount": 290.74, "Address": "2310 Astoria Ct", "LastPaymentMonth": "04", "LastPaymentYear": "2021", "Unit": "NA", "Type": "past due", "LastInvoiceMonth": "NA", "LastInvoiceYear": "NA", "Neighborhood": "NA", "Precinct": "NA", "Zip_code": "32303", "delinquency": "0" }, "geometry": { "type": "Point", "coordinates": [ -84.3349569, 30.4749128 ] } },
{ "type": "Feature", "properties": { "PastDue": 929.56, "LastPayAmount": 290.16, "Address": "1606 Indiana St", "LastPaymentMonth": "02", "LastPaymentYear": "2021", "Unit": "NA", "Type": "past due", "LastInvoiceMonth": "NA", "LastInvoiceYear": "NA", "Neighborhood": "NA", "Precinct": "NA", "Zip_code": "32304", "delinquency": "0" }, "geometry": { "type": "Point", "coordinates": [ -84.308858300000011, 30.4591583 ] } },
{ "type": "Feature", "properties": { "PastDue": 1667.18, "LastPayAmount": 493.03, "Address": "9250 Duggar Rd", "LastPaymentMonth": "09", "LastPaymentYear": "2020", "Unit": "NA", "Type": "past due", "LastInvoiceMonth": "NA", "LastInvoiceYear": "NA", "Neighborhood": "NA", "Precinct": "NA", "Zip_code": "32305", "delinquency": "jan2021" }, "geometry": { "type": "Point", "coordinates": [ -84.2392607, 30.3144925 ] } },
{ "type": "Feature", "properties": { "PastDue": 4369.24, "LastPayAmount": 761.32, "Address": "134 Lazy Creek Run", "LastPaymentMonth": "03", "LastPaymentYear": "2020", "Unit": "NA", "Type": "past due", "LastInvoiceMonth": "NA", "LastInvoiceYear": "NA", "Neighborhood": "NA", "Precinct": "NA", "Zip_code": "32304", "delinquency": "jan2021" }, "geometry": { "type": "Point", "coordinates": [ -84.393852099999989, 30.4664648 ] } },
{ "type": "Feature", "properties": { "PastDue": 399.8, "LastPayAmount": 100.0, "Address": "2716 Deep Forest Cir", "LastPaymentMonth": "04", "LastPaymentYear": "2021", "Unit": "NA", "Type": "past due", "LastInvoiceMonth": "NA", "LastInvoiceYear": "NA", "Neighborhood": "NA", "Precinct": "NA", "Zip_code": "32310", "delinquency": "0" }, "geometry": { "type": "Point", "coordinates": [ -84.3729748, 30.424592 ] } },
{ "type": "Feature", "properties": { "PastDue": 977.38, "LastPayAmount": 239.28, "Address": "2429 Raymond Diehl Rd", "LastPaymentMonth": "12", "LastPaymentYear": "2020", "Unit": "NA", "Type": "past due", "LastInvoiceMonth": "NA", "LastInvoiceYear": "NA", "Neighborhood": "NA", "Precinct": "NA", "Zip_code": "32309", "delinquency": "jan2021" }, "geometry": { "type": "Point", "coordinates": [ -84.2373057, 30.5021851 ] } },
{ "type": "Feature", "properties": { "PastDue": 202.6, "LastPayAmount": 195.0, "Address": "3006 Jim Lee Rd", "LastPaymentMonth": "04", "LastPaymentYear": "2021", "Unit": "Unit B", "Type": "past due", "LastInvoiceMonth": "NA", "LastInvoiceYear": "NA", "Neighborhood": "NA", "Precinct": "NA", "Zip_code": "32301", "delinquency": "0" }, "geometry": { "type": "Point", "coordinates": [ -84.2640951, 30.4080279 ] } },
{ "type": "Feature", "properties": { "PastDue": 1074.06, "LastPayAmount": 400.0, "Address": "2855 Apalachee Pkwy", "LastPaymentMonth": "05", "LastPaymentYear": "2020", "Unit": "Apt 62B", "Type": "past due", "LastInvoiceMonth": "NA", "LastInvoiceYear": "NA", "Neighborhood": "NA", "Precinct": "NA", "Zip_code": "32301", "delinquency": "jan2021" }, "geometry": { "type": "Point", "coordinates": [ -84.2323215, 30.4248977 ] } },
{ "type": "Feature", "properties": { "PastDue": 315.54, "LastPayAmount": 663.57, "Address": "3118 Tiffany St", "LastPaymentMonth": "04", "LastPaymentYear": "2021", "Unit": "NA", "Type": "past due", "LastInvoiceMonth": "NA", "LastInvoiceYear": "NA", "Neighborhood": "NA", "Precinct": "NA", "Zip_code": "32311", "delinquency": "0" }, "geometry": { "type": "Point", "coordinates": [ -84.2251214, 30.4263983 ] } },
{ "type": "Feature", "properties": { "PastDue": 1391.14, "LastPayAmount": 400.0, "Address": "729 Pointe Ct", "LastPaymentMonth": "03", "LastPaymentYear": "2021", "Unit": "Apt C", "Type": "past due", "LastInvoiceMonth": "NA", "LastInvoiceYear": "NA", "Neighborhood": "NA", "Precinct": "NA", "Zip_code": "32308", "delinquency": "0" }, "geometry": { "type": "Point", "coordinates": [ -84.2521416, 30.4500384 ] } },
{ "type": "Feature", "properties": { "PastDue": 239.9, "LastPayAmount": 173.45, "Address": "3326 Sawtooth Dr", "LastPaymentMonth": "04", "LastPaymentYear": "2021", "Unit": "NA", "Type": "past due", "LastInvoiceMonth": "NA", "LastInvoiceYear": "NA", "Neighborhood": "NA", "Precinct": "NA", "Zip_code": "32303", "delinquency": "0" }, "geometry": { "type": "Point", "coordinates": [ -84.3484332, 30.4875148 ] } },
{ "type": "Feature", "properties": { "PastDue": 291.92, "LastPayAmount": 1368.09, "Address": "2674 Vista Rise", "LastPaymentMonth": "04", "LastPaymentYear": "2021", "Unit": "Apt C", "Type": "past due", "LastInvoiceMonth": "NA", "LastInvoiceYear": "NA", "Neighborhood": "NA", "Precinct": "NA", "Zip_code": "32304", "delinquency": "0" }, "geometry": { "type": "Point", "coordinates": [ -84.335676, 30.4580583 ] } },
{ "type": "Feature", "properties": { "PastDue": 4746.04, "LastPayAmount": 339.24, "Address": "2965 Alexis Ct", "LastPaymentMonth": "08", "LastPaymentYear": "2020", "Unit": "NA", "Type": "past due", "LastInvoiceMonth": "NA", "LastInvoiceYear": "NA", "Neighborhood": "NA", "Precinct": "NA", "Zip_code": "32308", "delinquency": "jan2021" }, "geometry": { "type": "Point", "coordinates": [ -84.2238041, 30.4659878 ] } },
{ "type": "Feature", "properties": { "PastDue": 505.48, "LastPayAmount": 500.0, "Address": "3909 Reserve Dr", "LastPaymentMonth": "04", "LastPaymentYear": "2021", "Unit": "Apt 1526", "Type": "past due", "LastInvoiceMonth": "NA", "LastInvoiceYear": "NA", "Neighborhood": "NA", "Precinct": "NA", "Zip_code": "32311", "delinquency": "0" }, "geometry": { "type": "Point", "coordinates": [ -84.2061404, 30.4334083 ] } },
{ "type": "Feature", "properties": { "PastDue": 4136.43, "LastPayAmount": 2000.0, "Address": "1711 Corey Wood Cir", "LastPaymentMonth": "12", "LastPaymentYear": "2020", "Unit": "NA", "Type": "past due", "LastInvoiceMonth": "NA", "LastInvoiceYear": "NA", "Neighborhood": "NA", "Precinct": "NA", "Zip_code": "32304", "delinquency": "jan2021" }, "geometry": { "type": "Point", "coordinates": [ -84.3635288, 30.4354881 ] } },
{ "type": "Feature", "properties": { "PastDue": 233.58, "LastPayAmount": 300.0, "Address": "976 Balkin Rd", "LastPaymentMonth": "04", "LastPaymentYear": "2021", "Unit": "NA", "Type": "past due", "LastInvoiceMonth": "NA", "LastInvoiceYear": "NA", "Neighborhood": "NA", "Precinct": "NA", "Zip_code": "32305", "delinquency": "0" }, "geometry": { "type": "Point", "coordinates": [ -84.2924123, 30.3839692 ] } },
{ "type": "Feature", "properties": { "PastDue": 2351.72, "LastPayAmount": 200.0, "Address": "410 Victory Garden Dr", "LastPaymentMonth": "05", "LastPaymentYear": "2020", "Unit": "Apt 169", "Type": "past due", "LastInvoiceMonth": "NA", "LastInvoiceYear": "NA", "Neighborhood": "NA", "Precinct": "NA", "Zip_code": "32301", "delinquency": "jan2021" }, "geometry": { "type": "Point", "coordinates": [ -84.2420387, 30.4403767 ] } },
{ "type": "Feature", "properties": { "PastDue": 213.09, "LastPayAmount": 218.18, "Address": "2816 Saw Palmetto Ln", "LastPaymentMonth": "03", "LastPaymentYear": "2021", "Unit": "NA", "Type": "past due", "LastInvoiceMonth": "NA", "LastInvoiceYear": "NA", "Neighborhood": "NA", "Precinct": "NA", "Zip_code": "32309", "delinquency": "0" }, "geometry": { "type": "Point", "coordinates": [ -84.234268, 30.50484 ] } },
{ "type": "Feature", "properties": { "PastDue": 809.15, "LastPayAmount": 127.85, "Address": "830 E Park Ave", "LastPaymentMonth": "04", "LastPaymentYear": "2021", "Unit": "Apt 1203", "Type": "past due", "LastInvoiceMonth": "NA", "LastInvoiceYear": "NA", "Neighborhood": "NA", "Precinct": "NA", "Zip_code": "32301", "delinquency": "0" }, "geometry": { "type": "Point", "coordinates": [ -84.2684958, 30.4423019 ] } },
{ "type": "Feature", "properties": { "PastDue": 204.26, "LastPayAmount": 209.77, "Address": "1438 Janet Dr", "LastPaymentMonth": "03", "LastPaymentYear": "2021", "Unit": "NA", "Type": "past due", "LastInvoiceMonth": "NA", "LastInvoiceYear": "NA", "Neighborhood": "NA", "Precinct": "NA", "Zip_code": "32311", "delinquency": "0" }, "geometry": { "type": "Point", "coordinates": [ -84.2235674, 30.4241877 ] } },
{ "type": "Feature", "properties": { "PastDue": 628.62, "LastPayAmount": 140.0, "Address": "1916 Heritage Grove Cir", "LastPaymentMonth": "04", "LastPaymentYear": "2021", "Unit": "NA", "Type": "past due", "LastInvoiceMonth": "NA", "LastInvoiceYear": "NA", "Neighborhood": "NA", "Precinct": "NA", "Zip_code": "32304", "delinquency": "0" }, "geometry": { "type": "Point", "coordinates": [ -84.3139762, 30.4451851 ] } },
{ "type": "Feature", "properties": { "PastDue": 1660.62, "LastPayAmount": 100.0, "Address": "1830 Sylvan Ct", "LastPaymentMonth": "01", "LastPaymentYear": "2021", "Unit": "Apt B", "Type": "past due", "LastInvoiceMonth": "NA", "LastInvoiceYear": "NA", "Neighborhood": "NA", "Precinct": "NA", "Zip_code": "32303", "delinquency": "0" }, "geometry": { "type": "Point", "coordinates": [ -84.315203, 30.474377 ] } },
{ "type": "Feature", "properties": { "PastDue": 3102.27, "LastPayAmount": 253.0, "Address": "1124 Abraham St", "LastPaymentMonth": "03", "LastPaymentYear": "2020", "Unit": "NA", "Type": "past due", "LastInvoiceMonth": "NA", "LastInvoiceYear": "NA", "Neighborhood": "NA", "Precinct": "NA", "Zip_code": "32304", "delinquency": "jan2021" }, "geometry": { "type": "Point", "coordinates": [ -84.3012115, 30.4546988 ] } },
{ "type": "Feature", "properties": { "PastDue": 231.37, "LastPayAmount": 221.04, "Address": "2327 Garland Ct", "LastPaymentMonth": "03", "LastPaymentYear": "2021", "Unit": "NA", "Type": "past due", "LastInvoiceMonth": "NA", "LastInvoiceYear": "NA", "Neighborhood": "NA", "Precinct": "NA", "Zip_code": "32303", "delinquency": "0" }, "geometry": { "type": "Point", "coordinates": [ -84.3279714, 30.4750713 ] } },
{ "type": "Feature", "properties": { "PastDue": 5646.69, "LastPayAmount": 380.0, "Address": "204 Tropicaire St", "LastPaymentMonth": "02", "LastPaymentYear": "2020", "Unit": "NA", "Type": "past due", "LastInvoiceMonth": "NA", "LastInvoiceYear": "NA", "Neighborhood": "NA", "Precinct": "NA", "Zip_code": "32305", "delinquency": "march2020" }, "geometry": { "type": "Point", "coordinates": [ -84.2912198, 30.4009238 ] } },
{ "type": "Feature", "properties": { "PastDue": 2844.43, "LastPayAmount": 250.0, "Address": "2074 Midyette Rd", "LastPaymentMonth": "10", "LastPaymentYear": "2020", "Unit": "Apt 911", "Type": "past due", "LastInvoiceMonth": "NA", "LastInvoiceYear": "NA", "Neighborhood": "NA", "Precinct": "NA", "Zip_code": "32301", "delinquency": "jan2021" }, "geometry": { "type": "Point", "coordinates": [ -84.237634899999989, 30.4178888 ] } },
{ "type": "Feature", "properties": { "PastDue": 288.9, "LastPayAmount": 52.39, "Address": "3247 Lord Murphy Trl", "LastPaymentMonth": "04", "LastPaymentYear": "2021", "Unit": "NA", "Type": "past due", "LastInvoiceMonth": "NA", "LastInvoiceYear": "NA", "Neighborhood": "NA", "Precinct": "NA", "Zip_code": "32309", "delinquency": "0" }, "geometry": { "type": "Point", "coordinates": [ -84.1982126, 30.5483009 ] } },
{ "type": "Feature", "properties": { "PastDue": 1785.37, "LastPayAmount": 723.1, "Address": "993 Crawfordville Trce", "LastPaymentMonth": "09", "LastPaymentYear": "2020", "Unit": "NA", "Type": "past due", "LastInvoiceMonth": "NA", "LastInvoiceYear": "NA", "Neighborhood": "NA", "Precinct": "NA", "Zip_code": "32305", "delinquency": "jan2021" }, "geometry": { "type": "Point", "coordinates": [ -84.2934403, 30.3837896 ] } },
{ "type": "Feature", "properties": { "PastDue": 891.43, "LastPayAmount": 798.51, "Address": "1747 Capital Cir", "LastPaymentMonth": "01", "LastPaymentYear": "2021", "Unit": "Apt 1108", "Type": "past due", "LastInvoiceMonth": "NA", "LastInvoiceYear": "NA", "Neighborhood": "NA", "Precinct": "NA", "Zip_code": "32308", "delinquency": "0" }, "geometry": { "type": "Point", "coordinates": [ -84.2278384, 30.4681391 ] } },
{ "type": "Feature", "properties": { "PastDue": 2396.04, "LastPayAmount": 108.0, "Address": "1728 Corey Wood Cir", "LastPaymentMonth": "09", "LastPaymentYear": "2020", "Unit": "NA", "Type": "past due", "LastInvoiceMonth": "NA", "LastInvoiceYear": "NA", "Neighborhood": "NA", "Precinct": "NA", "Zip_code": "32304", "delinquency": "jan2021" }, "geometry": { "type": "Point", "coordinates": [ -84.3637137, 30.4351147 ] } },
{ "type": "Feature", "properties": { "PastDue": 2719.29, "LastPayAmount": 100.0, "Address": "3507 Sedona Loop", "LastPaymentMonth": "03", "LastPaymentYear": "2020", "Unit": "NA", "Type": "past due", "LastInvoiceMonth": "NA", "LastInvoiceYear": "NA", "Neighborhood": "NA", "Precinct": "NA", "Zip_code": "32308", "delinquency": "jan2021" }, "geometry": { "type": "Point", "coordinates": [ -84.217977, 30.47802 ] } },
{ "type": "Feature", "properties": { "PastDue": 1055.99, "LastPayAmount": 350.0, "Address": "2616 Mission Rd", "LastPaymentMonth": "04", "LastPaymentYear": "2021", "Unit": "Apt 36", "Type": "past due", "LastInvoiceMonth": "NA", "LastInvoiceYear": "NA", "Neighborhood": "NA", "Precinct": "NA", "Zip_code": "32304", "delinquency": "0" }, "geometry": { "type": "Point", "coordinates": [ -84.3341556, 30.4573196 ] } },
{ "type": "Feature", "properties": { "PastDue": 1439.16, "LastPayAmount": 125.0, "Address": "2000 N Meridian Rd", "LastPaymentMonth": "11", "LastPaymentYear": "2020", "Unit": "Apt 169", "Type": "past due", "LastInvoiceMonth": "NA", "LastInvoiceYear": "NA", "Neighborhood": "NA", "Precinct": "NA", "Zip_code": "32303", "delinquency": "jan2021" }, "geometry": { "type": "Point", "coordinates": [ -84.2789438, 30.4703869 ] } },
{ "type": "Feature", "properties": { "PastDue": 417.37, "LastPayAmount": 56.43, "Address": "4508 Cascade Dr", "LastPaymentMonth": "05", "LastPaymentYear": "2020", "Unit": "NA", "Type": "past due", "LastInvoiceMonth": "NA", "LastInvoiceYear": "NA", "Neighborhood": "NA", "Precinct": "NA", "Zip_code": "32310", "delinquency": "jan2021" }, "geometry": { "type": "Point", "coordinates": [ -84.3561416, 30.42792 ] } },
{ "type": "Feature", "properties": { "PastDue": 1106.84, "LastPayAmount": 200.0, "Address": "3424 Old Saint Augustine Rd", "LastPaymentMonth": "04", "LastPaymentYear": "2021", "Unit": "Lot 91", "Type": "past due", "LastInvoiceMonth": "NA", "LastInvoiceYear": "NA", "Neighborhood": "NA", "Precinct": "NA", "Zip_code": "32311", "delinquency": "0" }, "geometry": { "type": "Point", "coordinates": [ -84.2187027, 30.418823 ] } },
{ "type": "Feature", "properties": { "PastDue": 3796.23, "LastPayAmount": 582.16, "Address": "3501 W Orange Ave", "LastPaymentMonth": "04", "LastPaymentYear": "2020", "Unit": "Lot 60", "Type": "past due", "LastInvoiceMonth": "NA", "LastInvoiceYear": "NA", "Neighborhood": "NA", "Precinct": "NA", "Zip_code": "32310", "delinquency": "jan2021" }, "geometry": { "type": "Point", "coordinates": [ -84.3395075, 30.4139812 ] } },
{ "type": "Feature", "properties": { "PastDue": 2391.79, "LastPayAmount": 222.58, "Address": "1530 Live Oak Dr", "LastPaymentMonth": "03", "LastPaymentYear": "2020", "Unit": "Apt 2A", "Type": "past due", "LastInvoiceMonth": "NA", "LastInvoiceYear": "NA", "Neighborhood": "NA", "Precinct": "NA", "Zip_code": "32301", "delinquency": "jan2021" }, "geometry": { "type": "Point", "coordinates": [ -84.242223900000013, 30.4230031 ] } },
{ "type": "Feature", "properties": { "PastDue": 390.03, "LastPayAmount": 1000.0, "Address": "129 Henderson Rd", "LastPaymentMonth": "04", "LastPaymentYear": "2021", "Unit": "NA", "Type": "past due", "LastInvoiceMonth": "NA", "LastInvoiceYear": "NA", "Neighborhood": "NA", "Precinct": "NA", "Zip_code": "32312", "delinquency": "0" }, "geometry": { "type": "Point", "coordinates": [ -84.2862336, 30.4847752 ] } },
{ "type": "Feature", "properties": { "PastDue": 471.89, "LastPayAmount": 287.78, "Address": "4005 Clematis Ct", "LastPaymentMonth": "03", "LastPaymentYear": "2021", "Unit": "NA", "Type": "past due", "LastInvoiceMonth": "NA", "LastInvoiceYear": "NA", "Neighborhood": "NA", "Precinct": "NA", "Zip_code": "32305", "delinquency": "0" }, "geometry": { "type": "Point", "coordinates": [ -84.2889581, 30.4014084 ] } },
{ "type": "Feature", "properties": { "PastDue": 1375.06, "LastPayAmount": 119.75, "Address": "2712 W Tharpe St", "LastPaymentMonth": "02", "LastPaymentYear": "2020", "Unit": "Apt H50", "Type": "past due", "LastInvoiceMonth": "NA", "LastInvoiceYear": "NA", "Neighborhood": "NA", "Precinct": "NA", "Zip_code": "32303", "delinquency": "march2020" }, "geometry": { "type": "Point", "coordinates": [ -84.339246, 30.466479 ] } },
{ "type": "Feature", "properties": { "PastDue": 1542.82, "LastPayAmount": 107.09, "Address": "1767 Hermitage Blvd", "LastPaymentMonth": "02", "LastPaymentYear": "2020", "Unit": "Apt 2112", "Type": "past due", "LastInvoiceMonth": "NA", "LastInvoiceYear": "NA", "Neighborhood": "NA", "Precinct": "NA", "Zip_code": "32308", "delinquency": "march2020" }, "geometry": { "type": "Point", "coordinates": [ -84.2462776, 30.4882337 ] } },
{ "type": "Feature", "properties": { "PastDue": 275.0, "LastPayAmount": 280.75, "Address": "2513 Whisper Way", "LastPaymentMonth": "03", "LastPaymentYear": "2021", "Unit": "NA", "Type": "past due", "LastInvoiceMonth": "NA", "LastInvoiceYear": "NA", "Neighborhood": "NA", "Precinct": "NA", "Zip_code": "32308", "delinquency": "0" }, "geometry": { "type": "Point", "coordinates": [ -84.2364208, 30.4992095 ] } },
{ "type": "Feature", "properties": { "PastDue": 277.25, "LastPayAmount": 323.0, "Address": "3566 Chatelaine Dr", "LastPaymentMonth": "04", "LastPaymentYear": "2021", "Unit": "NA", "Type": "past due", "LastInvoiceMonth": "NA", "LastInvoiceYear": "NA", "Neighborhood": "NA", "Precinct": "NA", "Zip_code": "32308", "delinquency": "0" }, "geometry": { "type": "Point", "coordinates": [ -84.2140876, 30.4667238 ] } },
{ "type": "Feature", "properties": { "PastDue": 1771.62, "LastPayAmount": 50.0, "Address": "2000 Merchants Row Blvd", "LastPaymentMonth": "04", "LastPaymentYear": "2021", "Unit": "Apt 426", "Type": "past due", "LastInvoiceMonth": "NA", "LastInvoiceYear": "NA", "Neighborhood": "NA", "Precinct": "NA", "Zip_code": "32311", "delinquency": "0" }, "geometry": { "type": "Point", "coordinates": [ -84.2377996, 30.392951 ] } },
{ "type": "Feature", "properties": { "PastDue": 206.62, "LastPayAmount": 216.76, "Address": "1478 Amherst St", "LastPaymentMonth": "03", "LastPaymentYear": "2021", "Unit": "NA", "Type": "past due", "LastInvoiceMonth": "NA", "LastInvoiceYear": "NA", "Neighborhood": "NA", "Precinct": "NA", "Zip_code": "32305", "delinquency": "0" }, "geometry": { "type": "Point", "coordinates": [ -84.2554411, 30.3074563 ] } },
{ "type": "Feature", "properties": { "PastDue": 1385.11, "LastPayAmount": 221.41, "Address": "2712 W Tharpe St", "LastPaymentMonth": "09", "LastPaymentYear": "2020", "Unit": "Apt F39", "Type": "past due", "LastInvoiceMonth": "NA", "LastInvoiceYear": "NA", "Neighborhood": "NA", "Precinct": "NA", "Zip_code": "32303", "delinquency": "jan2021" }, "geometry": { "type": "Point", "coordinates": [ -84.339246, 30.466479 ] } },
{ "type": "Feature", "properties": { "PastDue": 2993.53, "LastPayAmount": 400.0, "Address": "1531 Myrtle Dr", "LastPaymentMonth": "01", "LastPaymentYear": "2021", "Unit": "NA", "Type": "past due", "LastInvoiceMonth": "NA", "LastInvoiceYear": "NA", "Neighborhood": "NA", "Precinct": "NA", "Zip_code": "32301", "delinquency": "0" }, "geometry": { "type": "Point", "coordinates": [ -84.2514009, 30.4284759 ] } },
{ "type": "Feature", "properties": { "PastDue": 1149.0, "LastPayAmount": 125.46, "Address": "2460 Dundee Dr", "LastPaymentMonth": "04", "LastPaymentYear": "2021", "Unit": "NA", "Type": "past due", "LastInvoiceMonth": "NA", "LastInvoiceYear": "NA", "Neighborhood": "NA", "Precinct": "NA", "Zip_code": "32308", "delinquency": "0" }, "geometry": { "type": "Point", "coordinates": [ -84.2349802, 30.5007599 ] } },
{ "type": "Feature", "properties": { "PastDue": 1433.63, "LastPayAmount": 700.0, "Address": "1705 Atkamire Dr", "LastPaymentMonth": "03", "LastPaymentYear": "2021", "Unit": "NA", "Type": "past due", "LastInvoiceMonth": "NA", "LastInvoiceYear": "NA", "Neighborhood": "NA", "Precinct": "NA", "Zip_code": "32304", "delinquency": "0" }, "geometry": { "type": "Point", "coordinates": [ -84.3108726, 30.4328264 ] } },
{ "type": "Feature", "properties": { "PastDue": 254.7, "LastPayAmount": 91.26, "Address": "2222 E Park Ave", "LastPaymentMonth": "04", "LastPaymentYear": "2021", "Unit": "NA", "Type": "past due", "LastInvoiceMonth": "NA", "LastInvoiceYear": "NA", "Neighborhood": "NA", "Precinct": "NA", "Zip_code": "32301", "delinquency": "0" }, "geometry": { "type": "Point", "coordinates": [ -84.2389623, 30.4424951 ] } },